$GPGGA,222437.000,2734.33926,S,15305.44310,E,1,07,1.3,50.6,M,39.2,M,,*72
$GPGLL,2734.33926,S,15305.44310,E,222437.000,A,A*49
$GPGSA,A,3,16,25,23,20,13,27,11,,,,,,2.3,1.3,1.9*3D
$GPGST,222437.000,13.3,7.4,6.6,85.1,6.0,6.8,13.7*56
$GPGSV,3,1,10,16,49,115,42,25,39,269,36,23,58,176,29,20,72,335,35*75
$GPGSV,3,2,10,19,02,028,,04,06,241,22,13,30,223,30,27,19,284,35*78
$GPGSV,3,3,10,11,06,337,30,03,13,055,25*7C
$GPRMC,222437.000,A,2734.33926,S,15305.44310,E,33.9,157.8,030308,11.2,W,A*0F
$GPVTG,157.8,T,169.0,M,33.9,N,62.9,K,A*22
$GPGGA,222438.000,2734.34821,S,15305.44697,E,1,07,1.2,50.8,M,39.2,M,,*79
$GPGLL,2734.34821,S,15305.44697,E,222438.000,A,A*4D
$GPGSA,A,3,16,25,23,20,13,27,03,,,,,,2.1,1.2,1.7*33
$GPGST,222438.000,12.4,6.4,9.3,16.2,6.1,8.3,16.4*5F
$GPGSV,3,1,10,16,49,115,41,25,39,269,36,23,58,176,28,20,72,335,36*74
$GPGSV,3,2,10,19,02,028,,04,06,241,20,13,30,223,28,27,19,284,35*73
$GPGSV,3,3,10,11,06,337,28,03,13,055,25*75
$GPRMC,222438.000,A,2734.34821,S,15305.44697,E,33.8,158.3,030308,11.2,W,A*0E
$GPVTG,158.3,T,169.5,M,33.8,N,62.5,K,A*2E
$GPGGA,222439.000,2734.35696,S,15305.45072,E,1,06,1.7,51.2,M,39.2,M,,*78
$GPGLL,2734.35696,S,15305.45072,E,222439.000,A,A*43
$GPGSA,A,3,16,25,23,20,13,27,,,,,,,3.3,1.7,2.8*3A
$GPGST,222439.000,10.3,9.1,12.2,44.6,9.8,9.9,25.2*62
$GPGSV,3,1,10,16,49,115,34,25,39,269,36,23,58,175,29,20,72,335,35*77
$GPGSV,3,2,10,19,02,028,,04,06,241,20,13,30,223,27,27,19,284,32*7B
$GPGSV,3,3,10,11,06,337,28,03,14,055,25*72
$GPRMC,222439.000,A,2734.35696,S,15305.45072,E,33.2,158.7,030308,11.2,W,A*0E
$GPVTG,158.7,T,169.9,M,33.2,N,61.5,K,A*2F
$GPGGA,222440.000,2734.36580,S,15305.45446,E,1,07,1.3,52.0,M,39.2,M,,*76
$GPGLL,2734.36580,S,15305.45446,E,222440.000,A,A*49
$GPGSA,A,3,16,25,23,20,13,27,11,,,,,,2.3,1.3,1.9*3D
$GPGST,222440.000,13.0,8.0,13.4,6.2,7.4,12.2,20.9*64
$GPGSV,3,1,10,16,49,115,40,25,39,269,38,23,58,175,31,20,72,335,34*72
$GPGSV,3,2,10,19,02,028,,04,06,241,20,13,30,223,26,27,19,284,30*78
$GPGSV,3,3,10,11,06,337,26,03,14,055,25*7C
$GPRMC,222440.000,A,2734.36580,S,15305.45446,E,33.7,159.1,030308,11.2,W,A*06
$GPVTG,159.1,T,170.3,M,33.7,N,62.4,K,A*2D
$GPGGA,222441.000,2734.37483,S,15305.45825,E,1,07,1.3,52.7,M,39.2,M,,*7A
$GPGLL,2734.37483,S,15305.45825,E,222441.000,A,A*42
$GPGSA,A,3,16,25,23,20,13,27,11,,,,,,2.3,1.3,1.9*3D
$GPGST,222441.000,14.0,7.6,14.1,17.6,7.7,12.5,21.0*51
$GPGSV,3,1,10,16,49,115,41,25,39,269,39,23,58,175,29,20,72,335,35*7A
$GPGSV,3,2,10,19,02,028,,04,06,241,20,13,30,223,24,27,19,284,30*7A
$GPGSV,3,3,10,11,06,337,28,03,14,055,25*72
$GPRMC,222441.000,A,2734.37483,S,15305.45825,E,34.6,159.4,030308,11.2,W,A*0E
$GPVTG,159.4,T,170.6,M,34.6,N,64.1,K,A*28
$GPGGA,222442.000,2734.38407,S,15305.46216,E,1,06,1.3,53.3,M,39.2,M,,*77
$GPGLL,2734.38407,S,15305.46216,E,222442.000,A,A*4B
$GPGSA,A,3,16,25,20,13,27,11,,,,,,,2.3,1.3,1.9*3C
$GPGST,222442.000,16.6,7.0,14.4,14.6,7.0,12.8,21.6*5A
$GPGSV,3,1,10,16,49,115,40,25,39,269,38,23,58,175,22,20,72,335,35*71
$GPGSV,3,2,10,19,02,028,,04,06,241,20,13,30,223,25,27,19,284,29*73
$GPGSV,3,3,10,11,06,337,27,03,14,055,25*7D
$GPRMC,222442.000,A,2734.38407,S,15305.46216,E,35.5,159.3,030308,11.2,W,A*02
$GPVTG,159.3,T,170.5,M,35.5,N,65.8,K,A*26
$GPGGA,222443.000,2734.39347,S,15305.46609,E,1,05,1.8,53.8,M,39.2,M,,*7D
$GPGLL,2734.39347,S,15305.46609,E,222443.000,A,A*42
$GPGSA,A,3,16,25,20,27,11,,,,,,,,2.8,1.8,2.1*35
$GPGST,222443.000,11.3,6.5,14.6,14.5,6.6,13.0,18.4*5A
$GPGSV,3,1,10,16,49,115,40,25,39,269,38,23,58,175,22,20,72,335,36*72
$GPGSV,3,2,10,19,02,028,,04,06,241,20,13,30,223,26,27,19,284,31*79
$GPGSV,3,3,10,11,06,337,28,03,14,055,25*72
$GPRMC,222443.000,A,2734.39347,S,15305.46609,E,36.2,159.4,030308,11.2,W,A*08
$GPVTG,159.4,T,170.6,M,36.2,N,67.0,K,A*2C
$GPGGA,222444.000,2734.40297,S,15305.47000,E,1,06,1.3,54.1,M,39.2,M,,*70
$GPGLL,2734.40297,S,15305.47000,E,222444.000,A,A*49
$GPGSA,A,3,16,25,20,13,27,11,,,,,,,2.3,1.3,1.9*3C
$GPGST,222444.000,17.6,6.3,12.7,14.4,6.3,11.4,16.2*55
$GPGSV,3,1,10,16,49,115,38,25,39,269,38,23,58,175,22,20,72,335,35*7E
$GPGSV,3,2,10,19,02,028,,04,06,241,20,13,30,223,25,27,19,284,29*73
$GPGSV,3,3,10,11,06,337,25,03,14,055,23*79
$GPRMC,222444.000,A,2734.40297,S,15305.47000,E,36.5,159.5,030308,11.2,W,A*05
$GPVTG,159.5,T,170.8,M,36.5,N,67.5,K,A*21
$GPGGA,222445.000,2734.41247,S,15305.47390,E,1,07,1.3,54.2,M,39.2,M,,*75
$GPGLL,2734.41247,S,15305.47390,E,222445.000,A,A*4E
$GPGSA,A,3,16,25,23,20,13,27,11,,,,,,2.3,1.3,1.9*3D
$GPGST,222445.000,16.0,7.0,14.4,10.4,6.7,13.0,20.7*52
$GPGSV,3,1,10,16,49,115,36,25,39,269,36,23,58,175,22,20,72,335,34*7F
$GPGSV,3,2,10,19,02,028,,04,06,241,20,13,30,223,26,27,19,284,31*79
$GPGSV,3,3,10,11,06,337,26,03,14,055,23*7A
$GPRMC,222445.000,A,2734.41247,S,15305.47390,E,36.6,159.7,030308,11.2,W,A*03
$GPVTG,159.7,T,170.9,M,36.6,N,67.8,K,A*2C
$GPGGA,222446.000,2734.42201,S,15305.47790,E,1,07,1.3,54.4,M,39.2,M,,*75
$GPGLL,2734.42201,S,15305.47790,E,222446.000,A,A*48
$GPGSA,A,3,16,25,23,20,13,27,11,,,,,,2.3,1.3,1.9*3D
$GPGST,222446.000,13.0,7.4,12.3,6.6,6.9,11.2,17.9*60
$GPGSV,3,1,10,16,49,115,36,25,39,269,37,23,58,175,27,20,72,335,35*7A
$GPGSV,3,2,10,19,02,028,,04,06,241,23,13,30,223,30,27,19,284,32*7E
$GPGSV,3,3,10,11,06,337,27,03,14,055,23*7B
$GPRMC,222446.000,A,2734.42201,S,15305.47790,E,36.6,159.3,030308,11.2,W,A*01
$GPVTG,159.3,T,170.5,M,36.6,N,67.7,K,A*2B
$GPGGA,222447.000,2734.43157,S,15305.48195,E,1,07,1.3,54.3,M,39.2,M,,*7E
$GPGLL,2734.43157,S,15305.48195,E,222447.000,A,A*44
$GPGSA,A,3,16,25,23,20,13,27,11,,,,,,2.3,1.3,1.9*3D
$GPGST,222447.000,10.7,6.7,10.5,6.6,6.2,9.6,15.5*5B
$GPGSV,3,1,11,16,49,115,32,25,39,269,37,23,58,175,28,20,72,335,33*76
$GPGSV,3,2,11,19,02,028,,04,06,241,23,13,30,223,30,27,19,284,32*7F
$GPGSV,3,3,11,11,06,337,29,01,,,19,03,14,055,23*7D
$GPRMC,222447.000,A,2734.43157,S,15305.48195,E,36.7,159.1,030308,11.2,W,A*0E
$GPVTG,159.1,T,170.3,M,36.7,N,67.9,K,A*20
$GPGGA,222448.000,2734.44111,S,15305.48610,E,1,08,1.1,54.1,M,39.2,M,,*71
$GPGLL,2734.44111,S,15305.48610,E,222448.000,A,A*44
$GPGSA,A,3,16,25,23,20,13,27,11,03,,,,,2.0,1.1,1.6*30
$GPGST,222448.000,20.4,10.5,8.8,52.5,8.7,9.1,15.2*6C
$GPGSV,3,1,11,16,49,115,27,25,39,269,38,23,58,175,26,20,72,335,31*71
$GPGSV,3,2,11,19,02,028,,04,06,241,23,13,30,223,37,27,19,284,27*7C
$GPGSV,3,3,11,11,06,337,27,01,,,19,03,14,055,23*73
$GPRMC,222448.000,A,2734.44111,S,15305.48610,E,36.8,158.7,030308,11.2,W,A*06
$GPVTG,158.7,T,169.9,M,36.8,N,68.2,K,A*2E
$GPGGA,222449.000,2734.45068,S,15305.49044,E,1,08,1.1,53.6,M,39.2,M,,*78
$GPGLL,2734.45068,S,15305.49044,E,222449.000,A,A*4D
$GPGSA,A,3,16,25,23,20,13,27,11,03,,,,,2.0,1.1,1.6*30
$GPGST,222449.000,17.1,8.8,10.2,14.2,8.2,9.3,17.4*6D
$GPGSV,3,1,11,16,49,115,28,25,39,269,37,23,58,175,25,20,72,335,28*7A
$GPGSV,3,2,11,19,02,028,,04,06,241,23,13,30,223,37,27,19,284,32*78
$GPGSV,3,3,11,11,06,337,27,01,,,19,03,14,055,24*74
$GPRMC,222449.000,A,2734.45068,S,15305.49044,E,37.2,157.8,030308,11.2,W,A*04
$GPVTG,157.8,T,169.0,M,37.2,N,68.9,K,A*27
$GPGGA,222450.000,2734.46041,S,15305.49485,E,1,08,1.1,53.3,M,39.2,M,,*74
$GPGLL,2734.46041,S,15305.49485,E,222450.000,A,A*44
$GPGSA,A,3,16,25,23,20,13,27,11,03,,,,,2.0,1.1,1.6*30
$GPGST,222450.000,17.4,8.9,12.7,10.1,11.5,8.2,16.5*5E
$GPGSV,3,1,11,16,49,115,25,25,39,269,36,23,58,175,30,20,72,336,28*71
$GPGSV,3,2,11,19,02,028,,04,06,241,21,13,30,223,38,27,19,284,34*73
$GPGSV,3,3,11,11,06,337,27,01,,,19,03,14,055,22*72
$GPRMC,222450.000,A,2734.46041,S,15305.49485,E,37.7,157.9,030308,11.2,W,A*09
$GPVTG,157.9,T,169.1,M,37.7,N,69.8,K,A*22
$GPGGA,222451.000,2734.47033,S,15305.49924,E,1,08,1.1,53.1,M,39.2,M,,*75
$GPGLL,2734.47033,S,15305.49924,E,222451.000,A,A*47
$GPGSA,A,3,16,25,23,20,13,27,11,03,,,,,2.0,1.1,1.6*30
$GPGST,222451.000,14.1,8.0,10.5,14.3,9.5,7.5,15.0*61
$GPGSV,3,1,11,16,49,115,27,25,39,269,38,23,58,175,28,20,72,336,25*79
$GPGSV,3,2,11,19,02,028,,04,06,241,21,13,30,223,38,27,19,284,34*73
$GPGSV,3,3,11,11,06,337,24,01,,,19,03,14,055,25*76
$GPRMC,222451.000,A,2734.47033,S,15305.49924,E,38.1,158.1,030308,11.2,W,A*04
$GPVTG,158.1,T,169.3,M,38.1,N,70.5,K,A*2B
$GPGGA,222452.000,2734.48022,S,15305.50375,E,1,08,1.1,52.5,M,39.2,M,,*7A
$GPGLL,2734.48022,S,15305.50375,E,222452.000,A,A*4D
$GPGSA,A,3,16,25,23,20,13,27,11,03,,,,,2.0,1.1,1.6*30
$GPGST,222452.000,24.1,13.9,9.7,80.6,12.7,9.0,21.0*54
$GPGSV,3,1,11,16,49,115,29,25,39,269,38,23,58,175,27,20,72,336,30*7C
$GPGSV,3,2,11,19,02,028,,04,06,241,21,13,30,223,35,27,19,284,34*7E
$GPGSV,3,3,11,11,06,337,22,01,,,19,03,14,055,24*71
$GPRMC,222452.000,A,2734.48022,S,15305.50375,E,38.3,157.9,030308,11.2,W,A*0B
$GPVTG,157.9,T,169.1,M,38.3,N,70.9,K,A*20
$GPGGA,222453.000,2734.49019,S,15305.50802,E,1,06,1.7,52.1,M,39.2,M,,*75
$GPGLL,2734.49019,S,15305.50802,E,222453.000,A,A*4E
$GPGSA,A,3,16,25,23,20,13,27,,,,,,,3.3,1.7,2.8*3A
$GPGST,222453.000,10.4,15.4,9.3,66.3,13.4,9.6,24.6*52
$GPGSV,3,1,11,16,49,115,31,25,39,269,36,23,58,175,28,20,71,336,25*73
$GPGSV,3,2,11,19,02,028,,04,06,241,21,13,30,223,33,27,19,284,31*7D
$GPGSV,3,3,11,11,06,337,22,01,,,19,03,14,055,24*71
$GPRMC,222453.000,A,2734.49019,S,15305.50802,E,38.3,159.1,030308,11.2,W,A*0E
$GPVTG,159.1,T,170.3,M,38.3,N,70.9,K,A*2C
$GPGGA,222454.000,2734.50008,S,15305.51221,E,1,07,1.3,52.1,M,39.2,M,,*75
$GPGLL,2734.50008,S,15305.51221,E,222454.000,A,A*4B
$GPGSA,A,3,16,25,23,20,13,27,11,,,,,,2.3,1.3,1.9*3D
$GPGST,222454.000,12.5,11.7,8.3,70.6,10.4,8.0,19.0*5E
$GPGSV,3,1,11,16,49,115,30,25,39,269,36,23,58,175,26,20,71,336,28*71
$GPGSV,3,2,11,19,02,028,,04,06,241,21,13,30,223,32,27,19,284,30*7D
$GPGSV,3,3,11,11,06,337,24,01,,,18,03,14,055,24*76
$GPRMC,222454.000,A,2734.50008,S,15305.51221,E,38.1,159.4,030308,11.2,W,A*0C
$GPVTG,159.4,T,170.6,M,38.1,N,70.5,K,A*22
$GPGGA,222455.000,2734.50992,S,15305.51642,E,1,07,1.3,52.2,M,39.2,M,,*7C
$GPGLL,2734.50992,S,15305.51642,E,222455.000,A,A*41
$GPGSA,A,3,16,25,23,20,13,27,11,,,,,,2.3,1.3,1.9*3D
$GPGST,222455.000,11.5,10.8,9.3,83.5,9.9,8.6,23.3*65
$GPGSV,3,1,11,16,49,115,33,25,39,269,36,23,58,175,32,20,71,336,31*7F
$GPGSV,3,2,11,19,02,028,,04,06,241,21,13,30,223,29,27,19,284,29*7F
$GPGSV,3,3,11,11,06,337,28,01,,,18,03,14,055,24*7A
$GPRMC,222455.000,A,2734.50992,S,15305.51642,E,37.8,159.0,030308,11.2,W,A*04
$GPVTG,159.0,T,170.2,M,37.8,N,70.0,K,A*21
$GPGGA,222456.000,2734.51963,S,15305.52059,E,1,07,1.3,52.5,M,39.2,M,,*78
$GPGLL,2734.51963,S,15305.52059,E,222456.000,A,A*42
$GPGSA,A,3,16,25,23,20,13,27,11,,,,,,2.3,1.3,1.9*3D
$GPGST,222456.000,11.3,9.0,13.1,11.0,8.4,11.9,20.9*55
$GPGSV,3,1,11,16,49,115,31,25,39,269,37,23,58,175,27,20,71,336,33*7A
$GPGSV,3,2,11,19,02,028,,04,06,241,19,13,30,223,29,27,19,284,32*7E
$GPGSV,3,3,11,11,06,337,30,01,,,18,03,14,055,24*73
$GPRMC,222456.000,A,2734.51963,S,15305.52059,E,37.3,158.8,030308,11.2,W,A*05
$GPVTG,158.8,T,170.0,M,37.3,N,69.1,K,A*28
$GPGGA,222457.000,2734.52908,S,15305.52467,E,1,06,1.3,53.2,M,39.2,M,,*79
$GPGLL,2734.52908,S,15305.52467,E,222457.000,A,A*44
$GPGSA,A,3,16,25,20,13,27,11,,,,,,,2.3,1.3,1.9*3C
$GPGST,222457.000,20.4,7.8,12.0,8.1,7.3,10.9,17.9*63
$GPGSV,3,1,11,16,49,115,37,25,39,269,37,23,58,175,24,20,71,336,35*79
$GPGSV,3,2,11,19,02,028,,04,06,241,19,13,30,223,29,27,19,284,32*7E
$GPGSV,3,3,11,11,06,337,28,01,,,18,03,14,055,23*7D
$GPRMC,222457.000,A,2734.52908,S,15305.52467,E,36.2,158.7,030308,11.2,W,A*0C
$GPVTG,158.7,T,169.9,M,36.2,N,67.1,K,A*28
$GPGGA,222458.000,2734.53845,S,15305.52866,E,1,06,1.6,54.2,M,39.2,M,,*70
$GPGLL,2734.53845,S,15305.52866,E,222458.000,A,A*4F
$GPGSA,A,3,16,25,23,20,27,11,,,,,,,2.6,1.6,2.1*34
$GPGST,222458.000,16.7,7.3,13.9,11.0,7.0,12.5,17.9*5D
$GPGSV,3,1,11,16,49,115,36,25,39,269,37,23,58,175,24,20,71,336,35*78
$GPGSV,3,2,11,19,02,028,19,04,06,241,19,13,30,223,26,27,19,284,31*7A
$GPGSV,3,3,11,11,06,337,23,01,,,18,03,14,055,23*76
$GPRMC,222458.000,A,2734.53845,S,15305.52866,E,35.9,159.1,030308,11.2,W,A*08
$GPVTG,159.1,T,170.3,M,35.9,N,66.5,K,A*20
$GPGGA,222459.000,2734.54772,S,15305.53309,E,1,08,1.1,55.6,M,39.2,M,,*72
$GPGLL,2734.54772,S,15305.53309,E,222459.000,A,A*41
$GPGSA,A,3,16,25,23,20,13,27,11,03,,,,,2.0,1.1,1.6*30
$GPGST,222459.000,17.5,6.5,9.3,15.5,6.1,8.3,15.2*5C
$GPGSV,3,1,11,16,49,115,38,25,39,268,36,23,58,175,35,20,71,336,35*76
$GPGSV,3,2,11,19,02,028,19,04,06,241,19,13,30,223,33,27,19,284,34*7B
$GPGSV,3,3,11,11,06,337,29,01,,,18,03,14,055,22*7D
$GPRMC,222459.000,A,2734.54772,S,15305.53309,E,35.9,156.8,030308,11.2,W,A*00
$GPVTG,156.8,T,168.0,M,35.9,N,66.4,K,A*2D
$GPGGA,222500.000,2734.55655,S,15305.53845,E,1,08,1.1,56.1,M,39.2,M,,*7D
$GPGLL,2734.55655,S,15305.53845,E,222500.000,A,A*4A
$GPGSA,A,3,16,25,23,20,13,27,11,03,,,,,2.0,1.1,1.6*30
$GPGST,222500.000,14.5,9.8,7.9,83.3,7.3,9.0,14.3*5C
$GPGSV,3,1,11,16,49,115,36,25,39,268,31,23,58,175,39,20,71,336,33*75
$GPGSV,3,2,11,19,02,028,21,04,06,241,19,13,30,223,30,27,19,284,29*7F
$GPGSV,3,3,11,11,06,337,25,01,,,18,03,14,055,28*7B
$GPRMC,222500.000,A,2734.55655,S,15305.53845,E,35.9,151.6,030308,11.2,W,A*02
$GPVTG,151.6,T,162.8,M,35.9,N,66.5,K,A*27
$GPGGA,222501.000,2734.56495,S,15305.54489,E,1,08,1.1,57.0,M,39.2,M,,*7A
$GPGLL,2734.56495,S,15305.54489,E,222501.000,A,A*4D
$GPGSA,A,3,16,25,23,20,13,27,11,03,,,,,2.0,1.1,1.6*30
$GPGST,222501.000,14.3,8.0,10.9,27.0,8.0,9.5,15.6*64
$GPGSV,3,1,11,16,49,115,41,25,39,268,31,23,58,175,36,20,71,336,31*78
$GPGSV,3,2,11,19,02,028,21,04,06,241,19,13,30,223,27,27,19,284,29*79
$GPGSV,3,3,11,11,06,337,22,01,,,18,03,14,055,31*74
$GPRMC,222501.000,A,2734.56495,S,15305.54489,E,36.5,145.7,030308,11.2,W,A*0E
$GPVTG,145.7,T,156.9,M,36.5,N,67.5,K,A*2B
$GPGGA,222502.000,2734.57337,S,15305.55181,E,1,06,1.5,57.9,M,39.2,M,,*78
$GPGLL,2734.57337,S,15305.55181,E,222502.000,A,A*4C
$GPGSA,A,3,16,25,23,20,27,03,,,,,,,2.5,1.5,2.0*36
$GPGST,222502.000,14.5,7.0,11.9,20.7,7.1,10.5,15.0*5F
$GPGSV,3,1,11,16,49,115,43,25,39,268,35,23,58,175,37,20,71,336,34*7A
$GPGSV,3,2,11,19,02,028,21,04,06,241,19,13,30,223,23,27,19,284,33*76
$GPGSV,3,3,11,11,06,337,22,01,,,18,03,14,055,34*71
$GPRMC,222502.000,A,2734.57337,S,15305.55181,E,37.4,143.8,030308,11.2,W,A*06
$GPVTG,143.8,T,155.0,M,37.4,N,69.3,K,A*20
$GPGGA,222503.000,2734.58184,S,15305.55887,E,1,08,1.1,58.5,M,39.2,M,,*7A
$GPGLL,2734.58184,S,15305.55887,E,222503.000,A,A*47
$GPGSA,A,3,16,25,23,20,13,27,11,03,,,,,2.0,1.1,1.6*30
$GPGST,222503.000,13.4,6.4,14.1,0.3,5.9,12.9,21.5*60
$GPGSV,3,1,11,16,49,115,43,25,39,268,35,23,58,175,38,20,71,336,35*74
$GPGSV,3,2,11,19,02,028,19,04,06,241,19,13,30,223,23,27,19,284,32*7C
$GPGSV,3,3,11,11,06,337,26,01,,,17,03,14,055,34*7A
$GPRMC,222503.000,A,2734.58184,S,15305.55887,E,37.8,143.4,030308,11.2,W,A*0D
$GPVTG,143.4,T,154.6,M,37.8,N,70.0,K,A*2C
$GPGGA,222504.000,2734.59032,S,15305.56580,E,1,07,1.2,58.9,M,39.2,M,,*79
$GPGLL,2734.59032,S,15305.56580,E,222504.000,A,A*44
$GPGSA,A,3,16,25,23,20,13,27,03,,,,,,2.1,1.2,1.7*33
$GPGST,222504.000,24.6,6.2,13.3,3.6,5.7,12.2,20.2*67
$GPGSV,3,1,11,16,49,115,43,25,39,268,35,23,58,175,39,20,71,336,35*75
$GPGSV,3,2,11,19,02,028,19,04,06,241,19,13,30,223,22,27,19,284,31*7E
$GPGSV,3,3,11,11,06,337,25,01,,,17,03,14,055,30*7D
$GPRMC,222504.000,A,2734.59032,S,15305.56580,E,37.6,143.6,030308,11.2,W,A*02
$GPVTG,143.6,T,154.8,M,37.6,N,69.7,K,A*21
$GPGGA,222505.000,2734.59874,S,15305.57271,E,1,06,1.5,59.4,M,39.2,M,,*70
$GPGLL,2734.59874,S,15305.57271,E,222505.000,A,A*47
$GPGSA,A,3,16,25,23,20,27,03,,,,,,,2.5,1.5,2.0*36
$GPGST,222505.000,17.4,5.5,11.8,3.4,5.0,10.8,17.3*61
$GPGSV,3,1,11,16,49,115,44,25,39,268,35,23,58,175,39,20,71,336,36*71
$GPGSV,3,2,11,19,02,028,21,04,06,241,19,13,30,223,24,27,19,284,31*73
$GPGSV,3,3,11,11,06,337,,01,,,17,03,14,055,29*72
$GPRMC,222505.000,A,2734.59874,S,15305.57271,E,37.3,143.7,030308,11.2,W,A*05
$GPVTG,143.7,T,154.9,M,37.3,N,69.1,K,A*22
$GPGGA,222506.000,2734.60703,S,15305.57943,E,1,07,1.2,60.1,M,39.2,M,,*75
$GPGLL,2734.60703,S,15305.57943,E,222506.000,A,A*4B
$GPGSA,A,3,16,25,23,20,13,27,03,,,,,,2.1,1.2,1.7*33
$GPGST,222506.000,16.1,6.2,11.7,15.3,6.1,10.4,17.4*54
$GPGSV,3,1,11,16,49,115,43,25,39,268,34,23,58,175,37,20,71,336,36*79
$GPGSV,3,2,11,19,02,028,21,04,06,241,,13,30,223,24,27,19,284,31*7B
$GPGSV,3,3,11,11,06,337,,01,,,17,03,14,055,28*73
$GPRMC,222506.000,A,2734.60703,S,15305.57943,E,36.5,143.9,030308,11.2,W,A*00
$GPVTG,143.9,T,155.1,M,36.5,N,67.6,K,A*2B
$GPGGA,222507.000,2734.61507,S,15305.58593,E,1,07,1.2,60.9,M,39.2,M,,*75
$GPGLL,2734.61507,S,15305.58593,E,222507.000,A,A*43
$GPGSA,A,3,16,25,23,20,13,27,03,,,,,,2.1,1.2,1.7*33
$GPGST,222507.000,14.0,6.8,11.8,10.9,6.4,10.7,18.5*54
$GPGSV,3,1,11,16,49,115,43,25,39,268,34,23,58,175,37,20,71,336,34*7B
$GPGSV,3,2,11,19,02,028,21,04,06,241,,13,30,223,29,27,19,284,34*73
$GPGSV,3,3,11,11,06,337,,01,,,17,03,14,055,29*72
$GPRMC,222507.000,A,2734.61507,S,15305.58593,E,35.4,143.9,030308,11.2,W,A*0A
$GPVTG,143.9,T,155.1,M,35.4,N,65.5,K,A*28
$GPGGA,222508.000,2734.62275,S,15305.59221,E,1,06,1.7,61.8,M,39.2,M,,*70
$GPGLL,2734.62275,S,15305.59221,E,222508.000,A,A*42
$GPGSA,A,3,16,25,23,20,13,27,,,,,,,3.3,1.7,2.8*3A
$GPGST,222508.000,12.5,9.3,16.3,19.5,9.4,14.4,27.5*51
$GPGSV,3,1,11,16,49,115,43,25,39,268,33,23,58,175,38,20,71,336,31*76
$GPGSV,3,2,11,19,02,028,21,04,06,241,,13,30,223,30,27,19,284,35*7A
$GPGSV,3,3,11,11,06,337,,01,,,17,03,14,055,28*73
$GPRMC,222508.000,A,2734.62275,S,15305.59221,E,33.9,143.9,030308,11.2,W,A*00
$GPVTG,143.9,T,155.1,M,33.9,N,62.9,K,A*28
$GPGGA,222509.000,2734.63006,S,15305.59817,E,1,06,1.7,62.7,M,39.2,M,,*75
$GPGLL,2734.63006,S,15305.59817,E,222509.000,A,A*4B
$GPGSA,A,3,16,25,23,20,13,27,,,,,,,3.3,1.7,2.8*3A
$GPGST,222509.000,10.4,8.1,14.2,21.9,8.4,12.3,23.7*52
$GPGSV,3,1,11,16,49,115,44,25,39,268,32,23,58,175,37,20,71,336,29*76
$GPGSV,3,2,11,19,02,028,21,04,06,241,,13,30,223,28,27,19,284,35*73
$GPGSV,3,3,11,11,06,337,,01,,,17,03,14,055,30*7A
$GPRMC,222509.000,A,2734.63006,S,15305.59817,E,32.2,143.9,030308,11.2,W,A*03
$GPVTG,143.9,T,155.1,M,32.2,N,59.7,K,A*24
$GPGGA,222510.000,2734.63706,S,15305.60376,E,1,06,1.7,63.5,M,39.2,M,,*7F
$GPGLL,2734.63706,S,15305.60376,E,222510.000,A,A*42
$GPGSA,A,3,16,25,23,20,13,27,,,,,,,3.3,1.7,2.8*3A
$GPGST,222510.000,12.4,8.3,12.9,28.0,8.7,11.0,21.6*57
$GPGSV,3,1,11,16,48,115,43,25,39,268,32,23,58,175,37,20,71,336,29*70
$GPGSV,3,2,11,19,02,028,20,04,06,241,,13,30,223,31,27,19,284,35*7A
$GPGSV,3,3,11,11,06,337,,01,,,17,03,14,055,25*7E
$GPRMC,222510.000,A,2734.63706,S,15305.60376,E,30.6,144.3,030308,11.2,W,A*01
$GPVTG,144.3,T,155.5,M,30.6,N,56.7,K,A*24
$GPGGA,222511.000,2734.64376,S,15305.60904,E,1,07,1.2,64.4,M,39.2,M,,*77
$GPGLL,2734.64376,S,15305.60904,E,222511.000,A,A*48
$GPGSA,A,3,16,25,23,20,13,27,03,,,,,,2.1,1.2,1.7*33
$GPGST,222511.000,14.6,5.7,10.5,2.7,5.2,9.6,15.0*5C
$GPGSV,3,1,11,16,48,115,44,25,39,268,32,23,58,175,37,20,71,336,28*76
$GPGSV,3,2,11,19,02,028,20,04,06,241,23,13,30,223,29,27,19,284,36*71
$GPGSV,3,3,11,11,06,337,,01,,,17,03,14,055,29*72
$GPRMC,222511.000,A,2734.64376,S,15305.60904,E,29.1,144.2,030308,11.2,W,A*05
$GPVTG,144.2,T,155.4,M,29.1,N,53.9,K,A*20
$GPGGA,222512.000,2734.64992,S,15305.61405,E,1,07,1.2,65.4,M,39.2,M,,*78
$GPGLL,2734.64992,S,15305.61405,E,222512.000,A,A*46
$GPGSA,A,3,16,25,23,20,13,27,03,,,,,,2.1,1.2,1.7*33
$GPGST,222512.000,13.4,17.0,5.7,85.6,5.3,15.5,23.6*5A
$GPGSV,3,1,11,16,48,115,45,25,39,268,33,23,58,175,38,20,71,336,28*79
$GPGSV,3,2,11,19,02,028,20,04,06,241,23,13,30,223,26,27,19,284,33*7B
$GPGSV,3,3,11,11,06,337,24,01,,,17,03,14,055,27*7A
$GPRMC,222512.000,A,2734.64992,S,15305.61405,E,27.2,143.6,030308,11.2,W,A*05
$GPVTG,143.6,T,154.8,M,27.2,N,50.5,K,A*2C
$GPGGA,222513.000,2734.65572,S,15305.61884,E,1,07,1.2,66.2,M,39.2,M,,*7A
$GPGLL,2734.65572,S,15305.61884,E,222513.000,A,A*41
$GPGSA,A,3,16,25,23,20,13,27,03,,,,,,2.1,1.2,1.7*33
$GPGST,222513.000,12.3,7.0,14.8,2.4,6.5,13.5,21.4*6D
$GPGSV,3,1,10,16,48,115,44,25,39,268,35,23,58,175,38,20,71,336,28*7F
$GPGSV,3,2,10,19,02,028,20,04,06,241,23,13,30,223,23,27,19,284,33*7F
$GPGSV,3,3,10,11,06,337,24,03,14,055,28*73
$GPRMC,222513.000,A,2734.65572,S,15305.61884,E,25.8,143.6,030308,11.2,W,A*0A
$GPVTG,143.6,T,154.8,M,25.8,N,47.9,K,A*2E
$GPGGA,222514.000,2734.66155,S,15305.62364,E,1,06,1.5,67.0,M,39.2,M,,*7C
$GPGLL,2734.66155,S,15305.62364,E,222514.000,A,A*42
$GPGSA,A,3,16,25,23,20,27,03,,,,,,,2.5,1.5,2.0*36
$GPGST,222514.000,25.5,6.1,14.4,3.1,5.6,13.2,19.2*6A
$GPGSV,3,1,10,16,48,115,44,25,39,268,33,23,58,175,38,20,71,336,26*77
$GPGSV,3,2,10,19,02,028,18,04,06,241,23,13,30,223,23,27,19,284,34*73
$GPGSV,3,3,10,11,06,337,28,03,14,055,29*7E
$GPRMC,222514.000,A,2734.66155,S,15305.62364,E,25.9,143.6,030308,11.2,W,A*08
$GPVTG,143.6,T,154.8,M,25.9,N,48.0,K,A*29
$GPGGA,222515.000,2734.66761,S,15305.62860,E,1,06,1.5,67.5,M,39.2,M,,*76
$GPGLL,2734.66761,S,15305.62860,E,222515.000,A,A*4D
$GPGSA,A,3,16,25,23,20,27,03,,,,,,,2.5,1.5,2.0*36
$GPGST,222515.000,20.1,5.5,13.0,3.0,5.1,11.8,17.4*68
$GPGSV,3,1,10,16,48,115,44,25,39,268,32,23,58,175,38,20,71,336,26*76
$GPGSV,3,2,10,19,02,028,18,04,06,241,23,13,30,223,24,27,19,284,34*74
$GPGSV,3,3,10,11,06,337,28,03,14,055,24*73
$GPRMC,222515.000,A,2734.66761,S,15305.62860,E,26.9,143.7,030308,11.2,W,A*05
$GPVTG,143.7,T,154.9,M,26.9,N,49.8,K,A*23
$GPGGA,222516.000,2734.67384,S,15305.63376,E,1,06,1.5,68.2,M,39.2,M,,*7E
$GPGLL,2734.67384,S,15305.63376,E,222516.000,A,A*4D
$GPGSA,A,3,16,25,23,20,27,03,,,,,,,2.5,1.5,2.0*36
$GPGST,222516.000,16.4,5.8,11.5,4.5,5.3,10.5,17.3*6A
$GPGSV,3,1,10,16,48,115,44,25,39,268,32,23,58,175,38,20,71,336,30*71
$GPGSV,3,2,10,19,02,028,18,04,06,241,23,13,30,223,24,27,19,284,33*73
$GPGSV,3,3,10,11,06,337,28,03,14,055,28*7F
$GPRMC,222516.000,A,2734.67384,S,15305.63376,E,27.7,143.8,030308,11.2,W,A*05
$GPVTG,143.8,T,155.0,M,27.7,N,51.4,K,A*2E
$GPGGA,222517.000,2734.68035,S,15305.63901,E,1,06,1.5,68.8,M,39.2,M,,*79
$GPGLL,2734.68035,S,15305.63901,E,222517.000,A,A*40
$GPGSA,A,3,16,25,23,20,27,03,,,,,,,2.5,1.5,2.0*36
$GPGST,222517.000,19.1,6.2,12.1,7.2,5.8,11.0,15.3*66
$GPGSV,3,1,10,16,48,115,44,25,39,268,34,23,58,175,38,20,71,336,32*75
$GPGSV,3,2,10,19,02,028,20,04,06,241,23,13,30,223,24,27,19,284,34*7F
$GPGSV,3,3,10,11,06,337,24,03,14,055,29*72
$GPRMC,222517.000,A,2734.68035,S,15305.63901,E,28.6,144.1,030308,11.2,W,A*08
$GPVTG,144.1,T,155.3,M,28.6,N,53.0,K,A*2B
$GPGGA,222518.000,2734.68718,S,15305.64446,E,1,07,1.4,69.1,M,39.2,M,,*7F
$GPGLL,2734.68718,S,15305.64446,E,222518.000,A,A*4E
$GPGSA,A,3,16,25,23,20,27,11,03,,,,,,2.4,1.4,1.9*3C
$GPGST,222518.000,13.8,5.5,10.6,5.8,5.1,9.6,13.4*54
$GPGSV,3,1,10,16,48,115,43,25,39,268,33,23,58,175,37,20,71,336,35*7D
$GPGSV,3,2,10,19,02,028,20,04,06,241,18,13,30,223,24,27,19,284,33*70
$GPGSV,3,3,10,11,06,337,22,03,14,055,33*7F
$GPRMC,222518.000,A,2734.68718,S,15305.64446,E,29.9,144.4,030308,11.2,W,A*0D
$GPVTG,144.4,T,155.6,M,29.9,N,55.3,K,A*20
$GPGGA,222519.000,2734.69424,S,15305.65010,E,1,07,1.4,69.5,M,39.2,M,,*71
$GPGLL,2734.69424,S,15305.65010,E,222519.000,A,A*44
$GPGSA,A,3,16,25,23,20,27,11,03,,,,,,2.4,1.4,1.9*3C
$GPGST,222519.000,14.0,13.4,5.0,89.4,4.6,12.3,18.8*58
$GPGSV,3,1,10,16,48,115,44,25,39,268,34,23,58,175,37,20,71,336,37*7F
$GPGSV,3,2,10,19,02,028,20,04,06,241,18,13,30,223,23,27,19,284,31*75
$GPGSV,3,3,10,11,06,337,26,03,14,055,35*7D
$GPRMC,222519.000,A,2734.69424,S,15305.65010,E,31.0,144.4,030308,11.2,W,A*07
$GPVTG,144.4,T,155.6,M,31.0,N,57.5,K,A*24
$GPGGA,222520.000,2734.70163,S,15305.65604,E,1,07,1.4,69.6,M,39.2,M,,*75
$GPGLL,2734.70163,S,15305.65604,E,222520.000,A,A*43
$GPGSA,A,3,16,25,23,20,27,11,03,,,,,,2.4,1.4,1.9*3C
$GPGST,222520.000,9.8,11.6,4.7,89.0,4.3,10.6,15.9*6A
$GPGSV,3,1,10,16,48,115,44,25,39,268,35,23,58,175,39,20,71,336,36*71
$GPGSV,3,2,10,19,02,028,20,04,06,241,19,13,30,223,23,27,19,284,31*74
$GPGSV,3,3,10,11,06,337,31,03,14,055,37*79
$GPRMC,222520.000,A,2734.70163,S,15305.65604,E,32.5,144.1,030308,11.2,W,A*03
$GPVTG,144.1,T,155.3,M,32.5,N,60.2,K,A*21
$GPGGA,222521.000,2734.70923,S,15305.66218,E,1,07,1.4,69.5,M,39.2,M,,*71
$GPGLL,2734.70923,S,15305.66218,E,222521.000,A,A*44
$GPGSA,A,3,16,25,23,20,27,11,03,,,,,,2.4,1.4,1.9*3C
$GPGST,222521.000,11.1,6.2,10.8,9.6,5.8,9.8,16.8*53
$GPGSV,3,1,10,16,48,115,44,25,39,268,36,23,58,175,40,20,71,336,38*72
$GPGSV,3,2,10,19,02,028,20,04,06,241,19,13,30,223,23,27,19,284,26*72
$GPGSV,3,3,10,11,06,338,31,03,14,055,37*76
$GPRMC,222521.000,A,2734.70923,S,15305.66218,E,33.5,144.0,030308,11.2,W,A*04
$GPVTG,144.0,T,155.3,M,33.5,N,62.0,K,A*21
$GPGGA,222522.000,2734.71700,S,15305.66845,E,1,06,1.5,69.1,M,39.2,M,,*7A
$GPGLL,2734.71700,S,15305.66845,E,222522.000,A,A*4B
$GPGSA,A,3,16,25,23,20,27,03,,,,,,,2.5,1.5,2.0*36
$GPGST,222522.000,15.0,5.7,9.9,5.5,5.2,9.0,15.4*68
$GPGSV,3,1,10,16,48,115,43,25,39,268,36,23,58,175,40,20,71,336,37*7A
$GPGSV,3,2,10,19,02,028,20,04,06,241,24,13,30,223,23,27,19,284,26*7C
$GPGSV,3,3,10,11,06,338,25,03,14,055,37*73
$GPRMC,222522.000,A,2734.71700,S,15305.66845,E,34.2,144.1,030308,11.2,W,A*0A
$GPVTG,144.1,T,155.3,M,34.2,N,63.4,K,A*25
$GPGGA,222523.000,2734.72487,S,15305.67483,E,1,07,1.4,68.6,M,39.2,M,,*75
$GPGLL,2734.72487,S,15305.67483,E,222523.000,A,A*42
$GPGSA,A,3,16,25,23,20,27,11,03,,,,,,2.4,1.4,1.9*3C
$GPGST,222523.000,13.8,5.2,10.1,3.9,4.8,9.2,13.8*5B
$GPGSV,3,1,10,16,48,115,44,25,39,268,37,23,58,175,41,20,71,336,35*7F
$GPGSV,3,2,10,19,02,028,20,04,06,241,24,13,30,223,23,27,19,284,26*7C
$GPGSV,3,3,10,11,06,338,23,03,14,055,31*73
$GPRMC,222523.000,A,2734.72487,S,15305.67483,E,34.7,144.2,030308,11.2,W,A*05
$GPVTG,144.2,T,155.4,M,34.7,N,64.3,K,A*24
$GPGGA,222524.000,2734.73280,S,15305.68126,E,1,07,1.4,68.1,M,39.2,M,,*70
$GPGLL,2734.73280,S,15305.68126,E,222524.000,A,A*40
$GPGSA,A,3,16,25,23,20,27,11,03,,,,,,2.4,1.4,1.9*3C
$GPGST,222524.000,10.5,4.9,9.4,3.5,4.5,8.6,12.8*60
$GPGSV,3,1,10,16,48,115,44,25,39,268,37,23,58,175,41,20,71,336,35*7F
$GPGSV,3,2,10,19,02,028,20,04,06,241,22,13,30,223,23,27,19,284,26*7A
$GPGSV,3,3,10,11,06,338,25,03,14,055,29*7C
$GPRMC,222524.000,A,2734.73280,S,15305.68126,E,35.0,144.2,030308,11.2,W,A*01
$GPVTG,144.2,T,155.4,M,35.0,N,64.9,K,A*28
$GPGGA,222525.000,2734.74083,S,15305.68778,E,1,07,1.4,67.7,M,39.2,M,,*73
$GPGLL,2734.74083,S,15305.68778,E,222525.000,A,A*4A
$GPGSA,A,3,16,25,23,20,27,11,03,,,,,,2.4,1.4,1.9*3C
$GPGST,222525.000,10.3,5.2,13.4,3.6,4.8,12.3,20.4*6B
$GPGSV,3,1,10,16,48,115,43,25,39,268,38,23,58,175,40,20,71,336,36*75
$GPGSV,3,2,10,19,02,028,20,04,06,241,22,13,30,223,23,27,19,284,23*7F
$GPGSV,3,3,10,11,06,338,27,03,14,055,36*70
$GPRMC,222525.000,A,2734.74083,S,15305.68778,E,35.6,144.2,030308,11.2,W,A*0D
$GPVTG,144.2,T,155.4,M,35.6,N,65.9,K,A*2F
$GPGGA,222526.000,2734.74894,S,15305.69428,E,1,06,1.5,67.2,M,39.2,M,,*7C
$GPGLL,2734.74894,S,15305.69428,E,222526.000,A,A*40
$GPGSA,A,3,16,25,23,20,27,03,,,,,,,2.5,1.5,2.0*36
$GPGST,222526.000,8.0,5.7,12.0,2.6,5.2,10.9,17.4*54
$GPGSV,3,1,10,16,48,115,43,25,39,268,37,23,58,175,40,20,71,336,35*79
$GPGSV,3,2,10,19,02,028,20,04,06,241,22,13,30,223,23,27,19,284,24*78
$GPGSV,3,3,10,11,06,338,27,03,14,055,39*7F
$GPRMC,222526.000,A,2734.74894,S,15305.69428,E,35.8,144.5,030308,11.2,W,A*0E
$GPVTG,144.5,T,155.7,M,35.8,N,66.3,K,A*2C
$GPGGA,222527.000,2734.75707,S,15305.70075,E,1,05,1.7,66.8,M,39.2,M,,*77
$GPGLL,2734.75707,S,15305.70075,E,222527.000,A,A*41
$GPGSA,A,3,16,25,23,20,03,,,,,,,,2.9,1.7,2.4*39
$GPGST,222527.000,13.9,6.3,10.9,6.3,5.9,10.0,18.2*60
$GPGSV,3,1,10,16,48,115,44,25,39,268,38,23,58,175,40,20,71,336,33*77
$GPGSV,3,2,10,19,02,028,,04,06,241,25,13,30,223,23,27,19,284,26*7F
$GPGSV,3,3,10,11,06,338,,03,14,055,36*75
$GPRMC,222527.000,A,2734.75707,S,15305.70075,E,35.8,144.6,030308,11.2,W,A*0C
$GPVTG,144.6,T,155.8,M,35.8,N,66.2,K,A*21
$GPGGA,222528.000,2734.76518,S,15305.70724,E,1,06,1.5,66.1,M,39.2,M,,*7C
$GPGLL,2734.76518,S,15305.70724,E,222528.000,A,A*42
$GPGSA,A,3,16,25,23,20,27,03,,,,,,,2.5,1.5,2.0*36
$GPGST,222528.000,11.3,5.6,10.1,4.5,5.2,9.2,16.1*51
$GPGSV,3,1,10,16,48,115,43,25,39,268,39,23,58,175,39,20,71,336,28*75
$GPGSV,3,2,10,19,02,028,,04,06,241,25,13,30,223,23,27,19,284,26*7F
$GPGSV,3,3,10,11,06,338,,03,14,055,36*75
$GPRMC,222528.000,A,2734.76518,S,15305.70724,E,35.7,144.4,030308,11.2,W,A*02
$GPVTG,144.4,T,155.6,M,35.7,N,66.2,K,A*22
$GPGGA,222529.000,2734.77313,S,15305.71385,E,1,06,1.5,66.1,M,39.2,M,,*7F
$GPGLL,2734.77313,S,15305.71385,E,222529.000,A,A*41
$GPGSA,A,3,16,25,23,20,27,03,,,,,,,2.5,1.5,2.0*36
$GPGST,222529.000,10.9,5.6,12.5,5.4,5.2,11.4,20.9*6F
$GPGSV,3,1,10,16,48,115,41,25,39,268,40,23,58,175,36,20,71,336,28*76
$GPGSV,3,2,10,19,02,028,,04,06,241,25,13,30,223,23,27,19,284,24*7D
$GPGSV,3,3,10,11,06,338,27,03,14,055,30*76
$GPRMC,222529.000,A,2734.77313,S,15305.71385,E,35.6,143.5,030308,11.2,W,A*06
$GPVTG,143.5,T,154.7,M,35.6,N,65.8,K,A*2C
$GPGGA,222530.000,2734.78106,S,15305.72042,E,1,06,1.5,66.0,M,39.2,M,,*74
$GPGLL,2734.78106,S,15305.72042,E,222530.000,A,A*4B
$GPGSA,A,3,16,25,23,20,27,03,,,,,,,2.5,1.5,2.0*36
$GPGST,222530.000,9.4,5.4,18.9,2.4,4.9,17.3,30.6*54
$GPGSV,3,1,10,16,48,115,40,25,39,268,40,23,58,175,36,20,71,336,28*77
$GPGSV,3,2,10,19,02,028,,04,06,241,25,13,30,223,23,27,19,284,26*7F
$GPGSV,3,3,10,11,06,338,27,03,14,055,29*7E
$GPRMC,222530.000,A,2734.78106,S,15305.72042,E,35.5,143.7,030308,11.2,W,A*0D
$GPVTG,143.7,T,155.0,M,35.5,N,65.8,K,A*2B
$GPGGA,222531.000,2734.78918,S,15305.72691,E,1,05,4.4,66.0,M,39.2,M,,*7D
$GPGLL,2734.78918,S,15305.72691,E,222531.000,A,A*45
$GPGSA,A,3,16,25,23,27,11,,,,,,,,9.3,4.4,8.2*36
$GPGST,222531.000,9.1,8.5,53.9,3.2,8.2,49.2,81.3*56
$GPGSV,3,1,10,16,48,115,40,25,39,268,39,23,58,175,37,20,71,336,28*78
$GPGSV,3,2,10,19,02,028,,04,06,241,25,13,31,223,23,27,19,284,25*7D
$GPGSV,3,3,10,11,06,338,24,03,14,055,22*76
$GPRMC,222531.000,A,2734.78918,S,15305.72691,E,35.9,144.5,030308,11.2,W,A*0A
$GPVTG,144.5,T,155.7,M,35.9,N,66.4,K,A*2A
$GPGGA,222532.000,2734.79737,S,15305.73347,E,1,06,1.5,66.0,M,39.2,M,,*74
$GPGLL,2734.79737,S,15305.73347,E,222532.000,A,A*4B
$GPGSA,A,3,16,25,23,20,27,03,,,,,,,2.5,1.5,2.0*36
$GPGST,222532.000,11.0,6.8,38.7,1.2,6.3,35.3,58.4*69
$GPGSV,3,1,10,16,48,115,40,25,39,268,39,23,58,175,36,20,71,336,28*79
$GPGSV,3,2,10,19,02,028,,04,06,241,25,13,31,223,24,27,19,284,23*7C
$GPGSV,3,3,10,11,06,338,24,03,14,055,30*75
$GPRMC,222532.000,A,2734.79737,S,15305.73347,E,36.1,144.5,030308,11.2,W,A*0F
$GPVTG,144.5,T,155.7,M,36.1,N,66.9,K,A*2C
$GPGGA,222533.000,2734.80571,S,15305.74004,E,1,06,4.1,66.1,M,39.2,M,,*70
$GPGLL,2734.80571,S,15305.74004,E,222533.000,A,A*4F
$GPGSA,A,3,16,25,23,27,11,03,,,,,,,8.3,4.1,7.3*3F
$GPGST,222533.000,9.4,6.1,45.5,0.4,5.6,41.6,69.5*50
$GPGSV,3,1,10,16,48,115,40,25,39,268,39,23,58,175,37,20,71,336,28*78
$GPGSV,3,2,10,19,02,028,,04,06,241,23,13,31,223,24,27,19,284,25*7C
$GPGSV,3,3,10,11,06,338,22,03,14,055,25*77
$GPRMC,222533.000,A,2734.80571,S,15305.74004,E,36.6,145.0,030308,11.2,W,A*08
$GPVTG,145.0,T,156.2,M,36.6,N,67.7,K,A*26
$GPGGA,222534.000,2734.81441,S,15305.74656,E,1,06,1.8,65.2,M,39.2,M,,*79
$GPGLL,2734.81441,S,15305.74656,E,222534.000,A,A*4A
$GPGSA,A,3,16,25,23,13,27,03,,,,,,,3.5,1.8,3.1*3A
$GPGST,222534.000,20.2,5.8,45.7,1.7,5.4,41.7,71.3*6C
$GPGSV,3,1,10,16,48,115,40,25,39,268,38,23,58,175,37,20,71,336,28*79
$GPGSV,3,2,10,19,02,028,,04,06,241,23,13,31,223,25,27,19,284,25*7D
$GPGSV,3,3,10,11,06,338,22,03,14,055,31*72
$GPRMC,222534.000,A,2734.81441,S,15305.74656,E,37.6,146.2,030308,11.2,W,A*0D
$GPVTG,146.2,T,157.5,M,37.6,N,69.7,K,A*2E
$GPGGA,222535.000,2734.82349,S,15305.75307,E,1,05,1.9,63.5,M,39.2,M,,*77
$GPGLL,2734.82349,S,15305.75307,E,222535.000,A,A*47
$GPGSA,A,3,16,25,23,13,03,,,,,,,,3.6,1.9,3.1*3D
$GPGST,222535.000,27.6,7.0,40.6,3.1,6.7,37.1,68.4*6C
$GPGSV,3,1,10,16,48,115,40,25,39,268,36,23,58,175,37,20,71,336,28*77
$GPGSV,3,2,10,19,02,028,,04,06,241,20,13,31,223,25,27,19,284,23*78
$GPGSV,3,3,10,11,06,338,22,03,14,055,26*74
$GPRMC,222535.000,A,2734.82349,S,15305.75307,E,38.7,147.3,030308,11.2,W,A*0E
$GPVTG,147.3,T,158.6,M,38.7,N,71.7,K,A*25
$GPGGA,222536.000,2734.83215,S,15305.75969,E,1,05,1.7,63.5,M,39.2,M,,*71
$GPGLL,2734.83215,S,15305.75969,E,222536.000,A,A*4F
$GPGSA,A,3,16,25,23,20,03,,,,,,,,2.9,1.7,2.4*39
$GPGST,222536.000,7.9,6.3,97.2,3.9,8.3,88.7,161.0*62
$GPGSV,3,1,10,16,48,115,40,25,39,268,37,23,58,175,36,20,71,336,28*77
$GPGSV,3,2,10,19,02,028,,04,06,241,20,13,31,223,25,27,19,284,23*78
$GPGSV,3,3,10,11,06,338,22,03,14,055,26*74
$GPRMC,222536.000,A,2734.83215,S,15305.75969,E,37.6,145.6,030308,11.2,W,A*0F
$GPVTG,145.6,T,156.8,M,37.6,N,69.7,K,A*25
$GPGGA,222537.000,2734.84076,S,15305.76655,E,1,05,1.7,63.5,M,39.2,M,,*73
$GPGLL,2734.84076,S,15305.76655,E,222537.000,A,A*4D
$GPGSA,A,3,16,25,23,20,03,,,,,,,,2.9,1.7,2.4*39
$GPGST,222537.000,16.0,7.8,110.8,2.1,8.0,101.2,209.1*57
$GPGSV,3,1,10,16,48,115,39,25,39,268,36,23,58,175,34,20,71,336,28*7A
$GPGSV,3,2,10,19,02,028,,04,06,241,22,13,31,223,25,27,19,284,23*7A
$GPGSV,3,3,10,11,06,338,22,03,14,055,25*77
$GPRMC,222537.000,A,2734.84076,S,15305.76655,E,37.9,144.6,030308,11.2,W,A*03
$GPVTG,144.6,T,155.8,M,37.9,N,70.3,K,A*24
$GPGGA,222538.000,2734.84945,S,15305.77356,E,1,05,1.9,63.5,M,39.2,M,,*7C
$GPGLL,2734.84945,S,15305.77356,E,222538.000,A,A*4C
$GPGSA,A,3,16,25,23,13,03,,,,,,,,3.6,1.9,3.1*3D
$GPGST,222538.000,13.1,8.0,61.7,1.6,7.5,56.4,113.0*51
$GPGSV,3,1,10,16,48,115,40,25,39,268,37,23,58,175,32,20,71,336,*79
$GPGSV,3,2,10,19,02,028,,04,06,241,22,13,31,223,25,27,19,284,23*7A
$GPGSV,3,3,10,11,06,338,22,03,14,055,28*7A
$GPRMC,222538.000,A,2734.84945,S,15305.77356,E,38.4,144.2,030308,11.2,W,A*04
$GPVTG,144.2,T,155.4,M,38.4,N,71.1,K,A*2D
$GPGGA,222539.000,2734.85792,S,15305.78022,E,1,05,1.9,63.5,M,39.2,M,,*77
$GPGLL,2734.85792,S,15305.78022,E,222539.000,A,A*47
$GPGSA,A,3,16,25,23,13,03,,,,,,,,3.6,1.9,3.1*3D
$GPGST,222539.000,6.4,7.5,72.7,1.5,7.1,66.5,137.2*68
$GPGSV,3,1,10,16,48,115,40,25,39,268,38,23,58,175,32,20,71,336,*76
$GPGSV,3,2,10,19,02,028,,04,06,241,22,13,31,223,25,27,19,284,23*7A
$GPGSV,3,3,10,11,06,338,22,03,14,055,28*7A
$GPRMC,222539.000,A,2734.85792,S,15305.78022,E,37.1,144.9,030308,11.2,W,A*0E
$GPVTG,144.9,T,156.1,M,37.1,N,68.7,K,A*24
$GPGGA,222540.000,2734.86604,S,15305.78646,E,1,05,4.4,63.5,M,39.2,M,,*78
$GPGLL,2734.86604,S,15305.78646,E,222540.000,A,A*40
$GPGSA,A,3,16,25,23,27,11,,,,,,,,9.3,4.4,8.2*36
$GPGST,222540.000,13.6,8.3,67.7,1.8,7.8,61.9,111.1*55
$GPGSV,3,1,10,16,48,115,40,25,39,268,38,23,58,175,32,20,71,336,*76
$GPGSV,3,2,10,19,02,028,,04,06,241,26,13,31,223,22,27,19,284,22*78
$GPGSV,3,3,10,11,06,338,20,03,14,055,28*78
$GPRMC,222540.000,A,2734.86604,S,15305.78646,E,35.3,145.6,030308,11.2,W,A*07
$GPVTG,145.6,T,156.8,M,35.3,N,65.4,K,A*2D
$GPGGA,222541.000,2734.87421,S,15305.79222,E,1,06,1.8,63.5,M,39.2,M,,*70
$GPGLL,2734.87421,S,15305.79222,E,222541.000,A,A*42
$GPGSA,A,3,16,25,23,13,27,03,,,,,,,3.5,1.8,3.1*3A
$GPGST,222541.000,11.7,33.3,8.1,87.4,7.5,30.4,54.6*51
$GPGSV,3,1,10,16,48,115,39,25,39,268,33,23,58,175,36,20,71,336,*77
$GPGSV,3,2,10,19,02,028,,04,06,241,26,13,31,223,22,27,19,284,22*78
$GPGSV,3,3,10,11,06,338,20,03,14,055,26*76
$GPRMC,222541.000,A,2734.87421,S,15305.79222,E,34.6,147.7,030308,11.2,W,A*02
$GPVTG,147.7,T,158.9,M,34.6,N,64.1,K,A*21
$GPGGA,222542.000,2734.88135,S,15305.79765,E,1,06,1.8,63.5,M,39.2,M,,*7A
$GPGLL,2734.88135,S,15305.79765,E,222542.000,A,A*48
$GPGSA,A,3,16,25,23,13,27,03,,,,,,,3.5,1.8,3.1*3A
$GPGST,222542.000,23.5,7.9,53.0,0.2,7.2,48.5,78.4*6F
$GPGSV,3,1,10,16,48,115,40,25,39,268,36,23,58,175,35,20,71,336,*7F
$GPGSV,3,2,10,19,02,028,,04,06,241,27,13,31,223,23,27,19,284,25*7F
$GPGSV,3,3,10,11,06,338,20,03,14,055,26*76
$GPRMC,222542.000,A,2734.88135,S,15305.79765,E,31.0,145.8,030308,11.2,W,A*06
$GPVTG,145.8,T,157.0,M,31.0,N,57.4,K,A*2C
$GPGGA,222543.000,2734.88798,S,15305.80287,E,1,07,1.2,63.0,M,39.2,M,,*7B
$GPGLL,2734.88798,S,15305.80287,E,222543.000,A,A*47
$GPGSA,A,3,16,25,23,20,13,27,03,,,,,,2.1,1.2,1.7*33
$GPGST,222543.000,18.8,6.7,28.4,0.5,6.1,26.0,41.8*62
$GPGSV,3,1,10,16,48,115,40,25,39,268,39,23,58,175,35,20,71,336,21*73
$GPGSV,3,2,10,19,02,028,,04,06,241,37,13,31,223,22,27,19,284,24*7E
$GPGSV,3,3,10,11,06,338,20,03,14,055,32*73
$GPRMC,222543.000,A,2734.88798,S,15305.80287,E,29.0,144.8,030308,11.2,W,A*01
$GPVTG,144.8,T,156.0,M,29.0,N,53.8,K,A*2D
$GPGGA,222544.000,2734.89328,S,15305.80767,E,1,06,1.8,62.9,M,39.2,M,,*7A
$GPGLL,2734.89328,S,15305.80767,E,222544.000,A,A*45
$GPGSA,A,3,16,25,23,13,27,03,,,,,,,3.5,1.8,3.1*3A
$GPGST,222544.000,14.9,35.2,5.8,89.5,5.4,32.2,52.6*52
$GPGSV,3,1,10,16,48,115,43,25,39,268,40,23,58,175,25,20,71,336,21*7F
$GPGSV,3,2,10,19,02,028,,04,06,241,28,13,31,223,30,27,19,284,29*7E
$GPGSV,3,3,10,11,06,338,20,03,14,055,33*72
$GPRMC,222544.000,A,2734.89328,S,15305.80767,E,24.5,140.9,030308,11.2,W,A*0E
$GPVTG,140.9,T,152.1,M,24.5,N,45.3,K,A*29
$GPGGA,222545.000,2734.89633,S,15305.81084,E,1,05,1.9,62.9,M,39.2,M,,*7D
$GPGLL,2734.89633,S,15305.81084,E,222545.000,A,A*40
$GPGSA,A,3,16,25,23,13,03,,,,,,,,3.6,1.9,3.1*3D
$GPGST,222545.000,19.5,6.0,33.0,1.0,5.5,30.2,52.4*69
$GPGSV,3,1,10,16,48,115,41,25,39,268,34,23,58,175,29,20,71,336,30*72
$GPGSV,3,2,10,19,02,028,,04,06,241,25,13,31,223,29,27,19,284,30*73
$GPGSV,3,3,10,11,06,338,20,03,14,055,30*71
$GPRMC,222545.000,A,2734.89633,S,15305.81084,E,14.6,136.6,030308,11.2,W,A*05
$GPVTG,136.6,T,147.8,M,14.6,N,27.0,K,A*2D
$GPGGA,222546.000,2734.89236,S,15305.81130,E,1,06,1.3,62.6,M,39.2,M,,*77
$GPGLL,2734.89236,S,15305.81130,E,222546.000,A,A*4C
$GPGSA,A,3,16,25,23,20,13,03,,,,,,,2.3,1.3,1.9*3B
$GPGST,222546.000,11.5,5.6,15.6,0.9,5.2,14.3,26.4*6E
$GPGSV,3,1,10,16,48,115,35,25,39,268,40,23,58,175,41,20,71,336,38*74
$GPGSV,3,2,10,19,02,028,,04,06,241,26,13,31,223,33,27,19,284,26*7C
$GPGSV,3,3,10,11,06,338,20,03,14,055,28*78
$GPRMC,222546.000,A,2734.89236,S,15305.81130,E,16.9,2.1,030308,11.2,W,A*05
$GPVTG,2.1,T,13.3,M,16.9,N,31.2,K,A*1F
$GPGGA,222547.000,2734.89429,S,15305.81239,E,1,05,2.3,62.5,M,39.2,M,,*77
$GPGLL,2734.89429,S,15305.81239,E,222547.000,A,A*4F
$GPGSA,A,3,16,23,13,27,03,,,,,,,,4.6,2.3,3.9*39
$GPGST,222547.000,11.4,38.3,9.7,69.8,14.7,33.0,49.2*6B
$GPGSV,3,1,10,16,48,115,32,25,39,268,37,23,58,175,42,20,71,336,37*7F
$GPGSV,3,2,10,19,02,028,,04,06,241,26,13,31,223,36,27,19,284,29*76
$GPGSV,3,3,10,11,06,338,20,03,14,055,34*75
$GPRMC,222547.000,A,2734.89429,S,15305.81239,E,8.4,154.5,030308,11.2,W,A*32
$GPVTG,154.5,T,165.7,M,8.4,N,15.6,K,A*1D
$GPGGA,222548.000,2734.89474,S,15305.81253,E,1,07,1.2,62.0,M,39.2,M,,*79
$GPGLL,2734.89474,S,15305.81253,E,222548.000,A,A*44
$GPGSA,A,3,16,25,23,20,13,27,03,,,,,,2.1,1.2,1.7*33
$GPGST,222548.000,11.0,12.3,7.9,86.0,7.3,11.3,20.6*5F
$GPGSV,3,1,10,16,48,115,34,25,39,268,36,23,58,175,42,20,71,336,38*77
$GPGSV,3,2,10,19,02,028,,04,06,241,25,13,31,223,36,27,19,284,29*75
$GPGSV,3,3,10,11,06,338,20,03,14,055,33*72
$GPRMC,222548.000,A,2734.89474,S,15305.81253,E,0.3,353.0,030308,11.2,W,A*36
$GPVTG,353.0,T,4.3,M,0.3,N,0.5,K,A*27
$GPGGA,222549.000,2734.89490,S,15305.81265,E,1,04,2.0,61.8,M,39.2,M,,*7E
$GPGLL,2734.89490,S,15305.81265,E,222549.000,A,A*4A
$GPGSA,A,3,25,23,13,03,,,,,,,,,3.9,2.0,3.3*3D
$GPGST,222549.000,17.0,16.1,8.8,81.3,8.3,14.6,29.3*57
$GPGSV,3,1,11,16,48,115,33,25,39,268,37,23,58,175,42,20,71,336,36*7E
$GPGSV,3,2,11,19,02,028,,04,06,241,25,13,31,223,35,27,19,284,30*7F
$GPGSV,3,3,11,11,06,338,20,01,,,21,03,14,055,33*71
$GPRMC,222549.000,A,2734.89490,S,15305.81265,E,0.2,330.7,030308,11.2,W,A*3B
$GPVTG,330.7,T,341.9,M,0.2,N,0.3,K,A*2A
$GPGGA,222550.000,2734.89526,S,15305.81278,E,1,04,2.6,61.7,M,39.2,M,,*7F
$GPGLL,2734.89526,S,15305.81278,E,222550.000,A,A*42
$GPGSA,A,3,16,25,23,13,,,,,,,,,6.1,2.6,5.6*31
$GPGST,222550.000,13.4,12.4,27.3,43.1,18.9,19.8,52.9*5A
$GPGSV,3,1,11,16,48,115,30,25,39,268,38,23,58,175,42,20,71,336,37*73
$GPGSV,3,2,11,19,02,028,,04,06,241,25,13,31,223,36,27,19,284,31*7D
$GPGSV,3,3,11,11,06,338,,01,,,21,03,14,055,32*72
$GPRMC,222550.000,A,2734.89526,S,15305.81278,E,0.1,350.7,030308,11.2,W,A*36
$GPVTG,350.7,T,1.9,M,0.1,N,0.2,K,A*29
$GPGGA,222551.000,2734.89528,S,15305.81279,E,1,05,2.3,61.7,M,39.2,M,,*75
$GPGLL,2734.89528,S,15305.81279,E,222551.000,A,A*4C
$GPGSA,A,3,16,23,13,27,03,,,,,,,,4.6,2.3,3.9*39
$GPGST,222551.000,13.7,31.0,11.1,60.5,16.5,25.2,39.3*5F
$GPGSV,3,1,11,16,48,115,30,25,39,268,39,23,58,175,41,20,71,336,35*73
$GPGSV,3,2,11,19,02,028,,04,06,241,23,13,31,223,36,27,19,284,31*7B
$GPGSV,3,3,11,11,06,338,,01,,,20,03,14,055,30*71
$GPRMC,222551.000,A,2734.89528,S,15305.81279,E,0.1,345.0,030308,11.2,W,A*3B
$GPVTG,345.0,T,356.2,M,0.1,N,0.2,K,A*20
$GPGGA,222552.000,2734.89550,S,15305.81288,E,1,05,2.1,61.7,M,39.2,M,,*75
$GPGLL,2734.89550,S,15305.81288,E,222552.000,A,A*4E
$GPGSA,A,3,16,25,23,13,27,,,,,,,,4.7,2.1,4.2*32
$GPGST,222552.000,11.7,11.5,20.8,20.0,11.8,18.2,39.1*55
$GPGSV,3,1,11,16,48,115,31,25,39,268,40,23,58,175,42,20,71,336,35*7F
$GPGSV,3,2,11,19,02,028,,04,06,241,23,13,31,223,38,27,19,284,31*75
$GPGSV,3,3,11,11,06,338,,01,,,20,03,14,055,30*71
$GPRMC,222552.000,A,2734.89550,S,15305.81288,E,0.1,11.2,030308,11.2,W,A*09
$GPVTG,11.2,T,22.5,M,0.1,N,0.2,K,A*27
$GPGGA,222553.000,2734.89573,S,15305.81294,E,1,05,2.1,61.5,M,39.2,M,,*7A
$GPGLL,2734.89573,S,15305.81294,E,222553.000,A,A*43
$GPGSA,A,3,16,25,23,13,27,,,,,,,,4.7,2.1,4.2*32
$GPGST,222553.000,9.8,10.3,17.6,19.1,10.4,15.6,33.7*6C
$GPGSV,3,1,10,16,48,115,29,25,39,268,38,23,58,175,41,20,71,336,37*79
$GPGSV,3,2,10,19,02,028,,04,06,241,23,13,31,223,39,27,19,284,30*74
$GPGSV,3,3,10,11,06,338,,03,14,055,29*7B
$GPRMC,222553.000,A,2734.89573,S,15305.81294,E,0.1,351.8,030308,11.2,W,A*39
$GPVTG,351.8,T,3.0,M,0.1,N,0.2,K,A*2C
$GPGGA,222554.000,2734.89591,S,15305.81298,E,1,04,2.6,61.4,M,39.2,M,,*7A
$GPGLL,2734.89591,S,15305.81298,E,222554.000,A,A*44
$GPGSA,A,3,16,25,23,13,,,,,,,,,6.1,2.6,5.6*31
$GPGST,222554.000,16.9,10.4,17.8,12.8,10.0,16.1,37.3*5F
$GPGSV,3,1,10,16,48,115,32,25,39,268,38,23,58,175,41,20,71,336,36*72
$GPGSV,3,2,10,19,02,028,,04,06,241,23,13,31,223,38,27,19,284,31*74
$GPGSV,3,3,10,11,06,338,,03,14,055,26*74
$GPRMC,222554.000,A,2734.89591,S,15305.81298,E,0.1,334.9,030308,11.2,W,A*3C
$GPVTG,334.9,T,346.1,M,0.1,N,0.2,K,A*2D
$GPGGA,222555.000,2734.89607,S,15305.81301,E,1,04,2.6,61.2,M,39.2,M,,*70
$GPGLL,2734.89607,S,15305.81301,E,222555.000,A,A*48
$GPGSA,A,3,16,25,23,13,,,,,,,,,6.1,2.6,5.6*31
$GPGST,222555.000,14.4,11.9,23.3,40.8,16.2,17.6,44.5*56
$GPGSV,3,1,11,16,48,115,32,25,39,268,37,23,58,175,40,20,71,336,38*73
$GPGSV,3,2,11,19,02,028,,04,06,241,23,13,31,223,37,27,19,284,30*7B
$GPGSV,3,3,11,11,06,338,,01,,,20,03,14,055,25*75
$GPRMC,222555.000,A,2734.89607,S,15305.81301,E,0.1,6.2,030308,11.2,W,A*39
$GPVTG,6.2,T,17.4,M,0.1,N,0.2,K,A*16
$GPGGA,222556.000,2734.89612,S,15305.81301,E,1,04,2.6,61.1,M,39.2,M,,*74
$GPGLL,2734.89612,S,15305.81301,E,222556.000,A,A*4F
$GPGSA,A,3,16,25,23,13,,,,,,,,,6.1,2.6,5.6*31
$GPGST,222556.000,12.4,15.8,24.1,4.1,14.5,22.0,39.9*69
$GPGSV,3,1,11,16,48,115,33,25,39,268,38,23,58,174,41,20,71,336,38*7D
$GPGSV,3,2,11,19,02,028,,04,06,242,23,13,31,223,38,27,19,284,32*75
$GPGSV,3,3,11,11,06,338,,01,,,20,03,14,055,28*78
$GPRMC,222556.000,A,2734.89612,S,15305.81301,E,0.1,21.8,030308,11.2,W,A*01
$GPVTG,21.8,T,33.0,M,0.1,N,0.2,K,A*2B
$GPGGA,222557.000,2734.89635,S,15305.81337,E,1,05,2.1,61.0,M,39.2,M,,*72
$GPGLL,2734.89635,S,15305.81337,E,222557.000,A,A*4E
$GPGSA,A,3,16,25,23,13,27,,,,,,,,4.7,2.1,4.2*32
$GPGST,222557.000,10.3,13.0,15.0,5.2,11.9,13.7,32.7*6B
$GPGSV,3,1,10,16,48,115,33,25,39,268,38,23,58,174,41,20,71,336,36*72
$GPGSV,3,2,10,19,02,028,,04,06,242,23,13,31,223,39,27,19,284,28*7E
$GPGSV,3,3,10,11,06,338,,03,14,055,31*72
$GPRMC,222557.000,A,2734.89635,S,15305.81337,E,1.2,96.1,030308,11.2,W,A*07
$GPVTG,96.1,T,107.3,M,1.2,N,2.2,K,A*1B
$GPGGA,222558.000,2734.89638,S,15305.81517,E,1,06,1.8,60.6,M,39.2,M,,*7A
$GPGLL,2734.89638,S,15305.81517,E,222558.000,A,A*48
$GPGSA,A,3,16,25,23,13,27,03,,,,,,,3.5,1.8,3.1*3A
$GPGST,222558.000,18.6,12.9,7.5,72.4,7.5,11.4,21.9*57
$GPGSV,3,1,10,16,48,115,39,25,39,268,38,23,58,174,37,20,71,336,26*78
$GPGSV,3,2,10,19,02,028,,04,06,242,23,13,31,223,34,27,19,284,29*72
$GPGSV,3,3,10,11,06,338,,03,14,055,30*73
$GPRMC,222558.000,A,2734.89638,S,15305.81517,E,5.6,82.0,030308,11.2,W,A*05
$GPVTG,82.0,T,93.2,M,5.6,N,10.3,K,A*10
$GPGGA,222559.000,2734.89631,S,15305.81911,E,1,05,2.2,60.5,M,39.2,M,,*71
$GPGLL,2734.89631,S,15305.81911,E,222559.000,A,A*4A
$GPGSA,A,3,16,25,23,20,27,,,,,,,,3.6,2.2,2.9*3A
$GPGST,222559.000,17.0,15.1,33.1,15.1,15.5,29.4,59.0*59
$GPGSV,3,1,10,16,48,115,34,25,39,268,35,23,58,174,30,20,71,336,29*70
$GPGSV,3,2,10,19,02,028,,04,06,242,23,13,31,223,35,27,19,284,28*72
$GPGSV,3,3,10,11,06,338,,03,14,055,27*75
$GPRMC,222559.000,A,2734.89631,S,15305.81911,E,12.5,87.6,030308,11.2,W,A*31
$GPVTG,87.6,T,98.8,M,12.5,N,23.2,K,A*26
$GPGGA,222600.000,2734.89436,S,15305.82359,E,1,06,1.8,61.2,M,39.2,M,,*72
$GPGLL,2734.89436,S,15305.82359,E,222600.000,A,A*45
$GPGSA,A,3,16,25,23,13,27,03,,,,,,,3.5,1.8,3.1*3A
$GPGST,222600.000,14.4,14.9,6.9,79.1,6.7,13.4,28.4*57
$GPGSV,3,1,10,16,48,115,37,25,39,268,36,23,58,174,29,20,71,336,33*73
$GPGSV,3,2,10,19,02,028,,04,06,242,23,13,31,223,39,27,19,284,28*7E
$GPGSV,3,3,10,11,06,338,,03,14,055,28*7A
$GPRMC,222600.000,A,2734.89436,S,15305.82359,E,15.9,62.5,030308,11.2,W,A*3D
$GPVTG,62.5,T,73.7,M,15.9,N,29.5,K,A*22
$GPGGA,222601.000,2734.89190,S,15305.82850,E,1,06,1.8,60.5,M,39.2,M,,*7E
$GPGLL,2734.89190,S,15305.82850,E,222601.000,A,A*4F
$GPGSA,A,3,16,25,23,13,27,03,,,,,,,3.6,1.8,3.1*39
$GPGST,222601.000,11.5,13.4,6.1,78.5,6.0,12.0,24.9*56
$GPGSV,3,1,10,16,48,115,40,25,39,268,27,23,58,174,35,20,71,336,28*74
$GPGSV,3,2,10,19,02,028,,04,06,242,,13,31,223,39,27,19,284,27*70
$GPGSV,3,3,10,11,06,338,,03,14,055,23*71
$GPRMC,222601.000,A,2734.89190,S,15305.82850,E,18.0,58.9,030308,11.2,W,A*36
$GPVTG,58.9,T,70.1,M,18.0,N,33.4,K,A*2C
$GPGGA,222602.000,2734.88904,S,15305.83361,E,1,05,1.6,60.0,M,39.2,M,,*79
$GPGLL,2734.88904,S,15305.83361,E,222602.000,A,A*40
$GPGSA,A,3,16,23,20,13,03,,,,,,,,2.5,1.6,1.9*3F
$GPGST,222602.000,11.3,17.1,6.5,54.9,10.2,13.2,18.6*62
$GPGSV,3,1,10,16,48,115,27,25,39,268,29,23,58,174,33,20,71,336,33*77
$GPGSV,3,2,10,19,02,028,,04,06,242,,13,31,223,35,27,19,284,32*78
$GPGSV,3,3,10,11,06,338,,03,14,055,24*76
$GPRMC,222602.000,A,2734.88904,S,15305.83361,E,19.8,55.1,030308,11.2,W,A*35
$GPVTG,55.1,T,66.3,M,19.8,N,36.7,K,A*23
$GPGGA,222603.000,2734.88556,S,15305.83944,E,1,04,3.8,58.8,M,39.2,M,,*70
$GPGLL,2734.88556,S,15305.83944,E,222603.000,A,A*47
$GPGSA,A,3,25,23,20,27,,,,,,,,,6.5,3.8,5.2*3C
$GPGST,222603.000,12.6,48.6,15.6,66.9,41.3,21.9,62.5*59
$GPGSV,3,1,10,16,48,115,23,25,39,268,29,23,58,174,31,20,71,337,37*74
$GPGSV,3,2,10,19,02,028,,04,06,242,,13,31,223,34,27,19,284,26*7C
$GPGSV,3,3,10,11,06,338,,03,14,055,28*7A
$GPRMC,222603.000,A,2734.88556,S,15305.83944,E,22.7,54.4,030308,11.2,W,A*31
$GPVTG,54.4,T,65.6,M,22.7,N,42.1,K,A*23
$GPGGA,222604.000,2734.88238,S,15305.84546,E,1,04,4.4,57.8,M,39.2,M,,*75
$GPGLL,2734.88238,S,15305.84546,E,222604.000,A,A*46
$GPGSA,A,3,25,20,13,27,,,,,,,,,7.2,4.4,5.7*37
$GPGST,222604.000,10.4,46.8,10.9,81.3,42.4,11.8,57.5*57
$GPGSV,3,1,10,16,48,115,27,25,39,268,32,23,58,174,32,20,71,337,37*79
$GPGSV,3,2,10,19,02,028,,04,06,242,,13,31,223,34,27,19,284,34*7F
$GPGSV,3,3,10,11,06,338,,03,14,055,29*7B
$GPRMC,222604.000,A,2734.88238,S,15305.84546,E,23.3,54.5,030308,11.2,W,A*34
$GPVTG,54.5,T,65.7,M,23.3,N,43.2,K,A*24
$GPGGA,222605.000,2734.87917,S,15305.85182,E,1,04,4.4,56.6,M,39.2,M,,*7F
$GPGLL,2734.87917,S,15305.85182,E,222605.000,A,A*43
$GPGSA,A,3,25,20,13,27,,,,,,,,,7.2,4.4,5.7*37
$GPGST,222605.000,14.3,40.3,10.1,81.5,36.5,10.7,49.8*58
$GPGSV,3,1,10,16,48,115,24,25,39,268,32,23,58,174,33,20,71,337,37*7B
$GPGSV,3,2,10,19,02,028,,04,06,242,20,13,31,223,35,27,19,284,32*7A
$GPGSV,3,3,10,11,06,338,,03,14,055,26*74
$GPRMC,222605.000,A,2734.87917,S,15305.85182,E,24.5,55.0,030308,11.2,W,A*34
$GPVTG,55.0,T,66.2,M,24.5,N,45.3,K,A*20
$GPGGA,222606.000,2734.87588,S,15305.85846,E,1,05,3.6,55.8,M,39.2,M,,*7E
$GPGLL,2734.87588,S,15305.85846,E,222606.000,A,A*4B
$GPGSA,A,3,25,23,20,13,27,,,,,,,,6.3,3.6,5.2*36
$GPGST,222606.000,11.7,30.4,8.7,77.7,27.2,9.8,40.6*59
$GPGSV,3,1,10,16,48,115,24,25,39,268,31,23,58,174,32,20,71,337,34*7A
$GPGSV,3,2,10,19,02,029,,04,06,242,20,13,31,223,35,27,19,284,34*7D
$GPGSV,3,3,10,11,06,338,,03,14,055,24*76
$GPRMC,222606.000,A,2734.87588,S,15305.85846,E,25.3,55.9,030308,11.2,W,A*32
$GPVTG,55.9,T,67.1,M,25.3,N,46.9,K,A*25
$GPGGA,222607.000,2734.87218,S,15305.86543,E,1,06,1.8,55.5,M,39.2,M,,*78
$GPGLL,2734.87218,S,15305.86543,E,222607.000,A,A*4F
$GPGSA,A,3,16,25,23,13,27,03,,,,,,,3.6,1.8,3.1*39
$GPGST,222607.000,11.2,13.8,8.5,86.1,7.8,12.6,27.3*52
$GPGSV,3,1,10,16,48,115,29,25,39,268,26,23,58,174,34,20,71,337,32*71
$GPGSV,3,2,10,19,02,029,,04,06,242,27,13,31,223,36,27,19,284,30*7D
$GPGSV,3,3,10,11,06,338,,03,14,055,24*76
$GPRMC,222607.000,A,2734.87218,S,15305.86543,E,26.0,57.6,030308,11.2,W,A*3B
$GPVTG,57.6,T,68.8,M,26.0,N,48.1,K,A*28
$GPGGA,222608.000,2734.86867,S,15305.87251,E,1,06,1.8,55.1,M,39.2,M,,*75
$GPGLL,2734.86867,S,15305.87251,E,222608.000,A,A*46
$GPGSA,A,3,16,25,23,13,27,03,,,,,,,3.6,1.8,3.1*39
$GPGST,222608.000,15.1,15.8,7.1,68.8,8.0,13.6,36.7*5C
$GPGSV,3,1,10,16,48,115,39,25,39,268,28,23,58,174,35,20,71,337,30*7D
$GPGSV,3,2,10,19,02,029,,04,06,242,27,13,31,223,40,27,19,284,28*75
$GPGSV,3,3,10,11,06,338,,03,14,055,28*7A
$GPRMC,222608.000,A,2734.86867,S,15305.87251,E,25.9,60.7,030308,11.2,W,A*3D
$GPVTG,60.7,T,71.9,M,25.9,N,47.9,K,A*29
$GPGGA,222609.000,2734.86555,S,15305.87973,E,1,06,1.8,54.7,M,39.2,M,,*74
$GPGLL,2734.86555,S,15305.87973,E,222609.000,A,A*40
$GPGSA,A,3,16,25,23,13,27,03,,,,,,,3.6,1.8,3.1*39
$GPGST,222609.000,10.9,10.9,5.1,85.4,4.7,10.0,22.0*55
$GPGSV,3,1,10,16,48,116,34,25,39,268,39,23,58,174,29,20,71,337,33*7D
$GPGSV,3,2,10,19,02,029,,04,06,242,24,13,31,223,42,27,19,284,23*7F
$GPGSV,3,3,10,11,06,338,,03,14,055,26*74
$GPRMC,222609.000,A,2734.86555,S,15305.87973,E,25.7,64.3,030308,11.2,W,A*35
$GPVTG,64.3,T,75.6,M,25.7,N,47.5,K,A*20
$GPGGA,222610.000,2734.86253,S,15305.88695,E,1,05,1.9,54.1,M,39.2,M,,*71
$GPGLL,2734.86253,S,15305.88695,E,222610.000,A,A*41
$GPGSA,A,3,16,25,23,13,03,,,,,,,,3.7,1.9,3.1*3C
$GPGST,222610.000,11.1,14.6,7.4,64.7,8.3,12.4,28.7*57
$GPGSV,3,1,10,16,48,116,29,25,39,268,42,23,58,174,28,20,71,337,32*7D
$GPGSV,3,2,10,19,02,029,,04,06,242,24,13,31,223,42,27,19,284,23*7F
$GPGSV,3,3,10,11,06,338,,03,14,055,24*76
$GPRMC,222610.000,A,2734.86253,S,15305.88695,E,25.3,65.0,030308,11.2,W,A*32
$GPVTG,65.0,T,76.3,M,25.3,N,46.8,K,A*2C
$GPGGA,222611.000,2734.85924,S,15305.89387,E,1,05,2.2,53.4,M,39.2,M,,*75
$GPGLL,2734.85924,S,15305.89387,E,222611.000,A,A*4F
$GPGSA,A,3,16,25,23,20,13,,,,,,,,5.3,2.2,4.8*39
$GPGST,222611.000,17.7,8.4,21.7,17.4,9.4,19.0,57.8*57
$GPGSV,3,1,10,16,48,116,39,25,39,268,32,23,58,174,35,20,71,337,26*72
$GPGSV,3,2,10,19,02,029,,04,06,242,31,13,31,223,39,27,19,284,24*70
$GPGSV,3,3,10,11,06,338,,03,14,055,26*74
$GPRMC,222611.000,A,2734.85924,S,15305.89387,E,24.9,61.4,030308,11.2,W,A*37
$GPVTG,61.4,T,72.6,M,24.9,N,46.1,K,A*2F
$GPGGA,222612.000,2734.85516,S,15305.90007,E,1,07,1.2,53.3,M,39.2,M,,*7E
$GPGLL,2734.85516,S,15305.90007,E,222612.000,A,A*42
$GPGSA,A,3,16,25,23,20,13,27,03,,,,,,2.1,1.2,1.7*33
$GPGST,222612.000,15.5,16.3,8.2,77.8,8.0,14.7,27.8*50
$GPGSV,3,1,10,16,48,116,29,25,39,268,29,23,58,174,30,20,71,337,34*7F
$GPGSV,3,2,10,19,02,029,,04,06,242,27,13,31,223,35,27,19,284,28*77
$GPGSV,3,3,10,11,06,338,,03,14,055,25*77
$GPRMC,222612.000,A,2734.85516,S,15305.90007,E,24.5,53.1,030308,11.2,W,A*32
$GPVTG,53.1,T,64.3,M,24.5,N,45.4,K,A*23
$GPGGA,222613.000,2734.85043,S,15305.90565,E,1,05,1.9,53.2,M,39.2,M,,*73
$GPGLL,2734.85043,S,15305.90565,E,222613.000,A,A*47
$GPGSA,A,3,16,25,20,13,27,,,,,,,,3.7,1.9,3.2*3A
$GPGST,222613.000,21.1,11.0,20.9,21.8,11.7,18.1,48.5*55
$GPGSV,3,1,10,16,48,116,30,25,39,268,32,23,58,174,24,20,71,337,36*7A
$GPGSV,3,2,10,19,02,029,,04,06,242,22,13,31,223,35,27,19,284,29*73
$GPGSV,3,3,10,11,06,338,,03,14,055,29*7B
$GPRMC,222613.000,A,2734.85043,S,15305.90565,E,24.9,45.4,030308,11.2,W,A*39
$GPVTG,45.4,T,56.6,M,24.9,N,46.1,K,A*2F
$GPGGA,222614.000,2734.84523,S,15305.91064,E,1,05,1.9,53.2,M,39.2,M,,*73
$GPGLL,2734.84523,S,15305.91064,E,222614.000,A,A*47
$GPGSA,A,3,16,25,20,13,27,,,,,,,,3.7,1.9,3.2*3A
$GPGST,222614.000,18.8,16.8,28.3,28.1,18.2,24.0,43.4*54
$GPGSV,3,1,10,16,48,116,27,25,39,268,30,23,58,174,32,20,71,337,35*7A
$GPGSV,3,2,10,19,02,029,,04,06,242,28,13,31,223,26,27,19,284,32*71
$GPGSV,3,3,10,11,06,338,,03,14,055,30*73
$GPRMC,222614.000,A,2734.84523,S,15305.91064,E,24.7,40.2,030308,11.2,W,A*34
$GPVTG,40.2,T,51.4,M,24.7,N,45.7,K,A*22
$GPGGA,222615.000,2734.84002,S,15305.91547,E,1,07,1.2,53.0,M,39.2,M,,*7B
$GPGLL,2734.84002,S,15305.91547,E,222615.000,A,A*44
$GPGSA,A,3,16,25,23,20,13,27,03,,,,,,2.1,1.2,1.7*33
$GPGST,222615.000,19.7,18.9,7.9,71.0,8.8,16.5,18.9*52
$GPGSV,3,1,10,16,48,116,25,25,39,268,26,23,58,174,35,20,71,337,34*79
$GPGSV,3,2,10,19,02,029,,04,06,242,24,13,31,223,25,27,19,284,30*7C
$GPGSV,3,3,10,11,06,338,,03,14,055,29*7B
$GPRMC,222615.000,A,2734.84002,S,15305.91547,E,24.1,38.7,030308,11.2,W,A*3B
$GPVTG,38.7,T,49.9,M,24.1,N,44.7,K,A*2B
$GPGGA,222616.000,2734.83488,S,15305.92024,E,1,07,1.2,53.1,M,39.2,M,,*7B
$GPGLL,2734.83488,S,15305.92024,E,222616.000,A,A*45
$GPGSA,A,3,16,25,23,20,13,27,03,,,,,,2.1,1.2,1.7*33
$GPGST,222616.000,18.1,15.8,11.2,70.8,10.8,14.1,19.9*51
$GPGSV,3,1,10,16,48,116,27,25,39,268,29,23,58,174,34,20,71,337,30*71
$GPGSV,3,2,10,19,02,029,,04,06,242,27,13,31,223,24,27,19,284,28*77
$GPGSV,3,3,10,11,06,338,,03,14,055,32*71
$GPRMC,222616.000,A,2734.83488,S,15305.92024,E,24.0,39.3,030308,11.2,W,A*3E
$GPVTG,39.3,T,50.5,M,24.0,N,44.5,K,A*29
$GPGGA,222617.000,2734.82955,S,15305.92505,E,1,07,1.2,53.2,M,39.2,M,,*73
$GPGLL,2734.82955,S,15305.92505,E,222617.000,A,A*4E
$GPGSA,A,3,16,25,23,20,13,27,03,,,,,,2.1,1.2,1.7*33
$GPGST,222617.000,14.7,13.3,9.2,70.7,8.9,11.8,16.8*5B
$GPGSV,3,1,10,16,48,116,23,25,39,268,30,23,58,174,35,20,71,337,33*7F
$GPGSV,3,2,10,19,02,029,,04,06,242,25,13,31,223,25,27,19,284,26*7A
$GPGSV,3,3,10,11,06,338,,03,14,055,32*71
$GPRMC,222617.000,A,2734.82955,S,15305.92505,E,24.7,38.8,030308,11.2,W,A*38
$GPVTG,38.8,T,50.0,M,24.7,N,45.7,K,A*22
$GPGGA,222618.000,2734.82405,S,15305.92991,E,1,07,1.2,53.5,M,39.2,M,,*72
$GPGLL,2734.82405,S,15305.92991,E,222618.000,A,A*48
$GPGSA,A,3,16,25,23,20,13,27,03,,,,,,2.1,1.2,1.7*33
$GPGST,222618.000,13.7,14.7,7.8,77.2,7.6,13.2,24.3*54
$GPGSV,3,1,10,16,48,116,27,25,39,268,30,23,58,174,36,20,71,337,32*79
$GPGSV,3,2,10,19,02,029,,04,06,242,31,13,31,223,25,27,19,283,23*7D
$GPGSV,3,3,10,11,06,338,,03,14,056,32*72
$GPRMC,222618.000,A,2734.82405,S,15305.92991,E,25.3,38.3,030308,11.2,W,A*30
$GPVTG,38.3,T,49.5,M,25.3,N,46.8,K,A*2D
$GPGGA,222619.000,2734.81867,S,15305.93485,E,1,07,1.2,53.8,M,39.2,M,,*7C
$GPGLL,2734.81867,S,15305.93485,E,222619.000,A,A*4B
$GPGSA,A,3,16,25,23,20,13,27,03,,,,,,2.1,1.2,1.7*33
$GPGST,222619.000,20.5,18.3,9.9,85.5,9.1,16.7,27.9*5A
$GPGSV,3,1,10,16,48,116,27,25,39,268,30,23,58,174,35,20,71,337,33*7B
$GPGSV,3,2,10,19,02,029,,04,06,242,29,13,31,223,23,27,19,283,23*72
$GPGSV,3,3,10,11,06,338,,03,14,056,32*72
$GPRMC,222619.000,A,2734.81867,S,15305.93485,E,25.3,39.2,030308,11.2,W,A*33
$GPVTG,39.2,T,50.4,M,25.3,N,46.8,K,A*24
$GPGGA,222620.000,2734.81344,S,15305.93979,E,1,05,1.6,53.8,M,39.2,M,,*74
$GPGLL,2734.81344,S,15305.93979,E,222620.000,A,A*45
$GPGSA,A,3,16,23,20,13,03,,,,,,,,2.5,1.6,1.9*3F
$GPGST,222620.000,18.2,14.7,21.1,9.8,19.1,13.7,29.8*64
$GPGSV,3,1,10,16,48,116,26,25,39,268,30,23,58,174,33,20,71,337,34*7B
$GPGSV,3,2,10,19,02,029,,04,06,242,24,13,31,223,25,27,19,283,29*73
$GPGSV,3,3,10,11,06,338,,03,14,056,33*73
$GPRMC,222620.000,A,2734.81344,S,15305.93979,E,24.7,39.5,030308,11.2,W,A*3F
$GPVTG,39.5,T,50.7,M,24.7,N,45.8,K,A*26
$GPGGA,222621.000,2734.80838,S,15305.94469,E,1,06,1.3,53.5,M,39.2,M,,*74
$GPGLL,2734.80838,S,15305.94469,E,222621.000,A,A*4E
$GPGSA,A,3,16,25,23,20,13,03,,,,,,,2.3,1.3,1.9*3B
$GPGST,222621.000,14.6,11.8,13.4,39.2,11.7,11.4,21.8*5D
$GPGSV,3,1,10,16,48,116,25,25,39,268,31,23,58,174,33,20,71,337,37*7A
$GPGSV,3,2,10,19,03,029,,04,06,242,24,13,31,223,24,27,19,283,36*7D
$GPGSV,3,3,10,11,06,338,,03,14,056,32*72
$GPRMC,222621.000,A,2734.80838,S,15305.94469,E,24.1,40.1,030308,11.2,W,A*38
$GPVTG,40.1,T,51.3,M,24.1,N,44.7,K,A*21
$GPGGA,222622.000,2734.80354,S,15305.94956,E,1,06,1.7,53.3,M,39.2,M,,*75
$GPGLL,2734.80354,S,15305.94956,E,222622.000,A,A*4D
$GPGSA,A,3,16,25,23,20,13,27,,,,,,,3.3,1.7,2.9*3B
$GPGST,222622.000,13.2,10.2,17.1,41.6,12.5,13.2,30.8*59
$GPGSV,3,1,10,16,48,116,26,25,39,268,31,23,58,174,26,20,71,337,39*73
$GPGSV,3,2,10,19,03,029,,04,06,242,24,13,31,223,28,27,19,283,36*71
$GPGSV,3,3,10,11,06,338,,03,14,056,35*75
$GPRMC,222622.000,A,2734.80354,S,15305.94956,E,23.6,41.3,030308,11.2,W,A*38
$GPVTG,41.3,T,52.5,M,23.6,N,43.7,K,A*20
$GPGGA,222623.000,2734.79878,S,15305.95470,E,1,05,1.9,52.8,M,39.2,M,,*78
$GPGLL,2734.79878,S,15305.95470,E,222623.000,A,A*47
$GPGSA,A,3,16,25,20,13,27,,,,,,,,3.7,1.9,3.2*3A
$GPGST,222623.000,14.7,24.8,16.6,50.3,19.9,18.6,39.3*5E
$GPGSV,3,1,11,16,48,116,24,25,39,268,32,23,58,174,24,20,71,337,38*70
$GPGSV,3,2,11,19,03,029,,04,06,242,24,13,31,223,32,27,19,283,34*79
$GPGSV,3,3,11,11,06,338,,01,,,18,03,14,056,34*7D
$GPRMC,222623.000,A,2734.79878,S,15305.95470,E,24.0,43.4,030308,11.2,W,A*36
$GPVTG,43.4,T,54.6,M,24.0,N,44.4,K,A*25
$GPGGA,222624.000,2734.79400,S,15305.96019,E,1,05,1.9,52.3,M,39.2,M,,*7F
$GPGLL,2734.79400,S,15305.96019,E,222624.000,A,A*4B
$GPGSA,A,3,16,25,20,27,03,,,,,,,,2.7,1.9,2.0*39
$GPGST,222624.000,12.3,24.0,7.9,80.2,8.0,21.7,15.3*5C
$GPGSV,3,1,11,16,48,116,23,25,39,268,32,23,58,174,26,20,71,337,37*7A
$GPGSV,3,2,11,19,03,029,,04,06,242,24,13,31,223,35,27,19,283,25*7E
$GPGSV,3,3,11,11,06,338,,01,,,18,03,14,056,31*78
$GPRMC,222624.000,A,2734.79400,S,15305.96019,E,24.7,45.3,030308,11.2,W,A*3C
$GPVTG,45.3,T,56.6,M,24.7,N,45.7,K,A*23
$GPGGA,222625.000,2734.78953,S,15305.96595,E,1,05,1.9,51.8,M,39.2,M,,*7D
$GPGLL,2734.78953,S,15305.96595,E,222625.000,A,A*41
$GPGSA,A,3,16,25,20,13,27,,,,,,,,3.7,1.9,3.2*3A
$GPGST,222625.000,24.0,12.2,19.9,37.5,14.2,16.0,36.1*57
$GPGSV,3,1,11,16,48,116,30,25,39,268,32,23,58,174,23,20,71,337,37*7D
$GPGSV,3,2,11,19,03,029,,04,06,242,25,13,31,223,36,27,19,283,25*7C
$GPGSV,3,3,11,11,06,338,,01,,,18,03,14,056,24*7C
$GPRMC,222625.000,A,2734.78953,S,15305.96595,E,24.8,47.9,030308,11.2,W,A*31
$GPVTG,47.9,T,59.1,M,24.8,N,46.0,K,A*28
$GPGGA,222626.000,2734.78516,S,15305.97172,E,1,05,2.5,51.1,M,39.2,M,,*79
$GPGLL,2734.78516,S,15305.97172,E,222626.000,A,A*43
$GPGSA,A,3,16,25,20,04,13,,,,,,,,4.2,2.5,3.3*37
$GPGST,222626.000,20.2,12.6,23.1,19.8,13.0,20.2,38.4*5F
$GPGSV,3,1,11,16,48,116,31,25,39,268,32,23,58,174,25,20,71,337,38*75
$GPGSV,3,2,11,19,03,029,,04,06,242,25,13,31,223,36,27,19,283,23*7A
$GPGSV,3,3,11,11,06,338,,01,,,18,03,14,056,24*7C
$GPRMC,222626.000,A,2734.78516,S,15305.97172,E,24.7,48.3,030308,11.2,W,A*39
$GPVTG,48.3,T,59.5,M,24.7,N,45.7,K,A*22
$GPGGA,222627.000,2734.78079,S,15305.97737,E,1,04,2.5,50.5,M,39.2,M,,*77
$GPGLL,2734.78079,S,15305.97737,E,222627.000,A,A*49
$GPGSA,A,3,16,23,20,13,,,,,,,,,5.8,2.5,5.2*39
$GPGST,222627.000,16.3,12.4,42.2,11.3,13.5,37.9,90.0*51
$GPGSV,3,1,11,16,48,116,28,25,39,268,32,23,58,174,25,20,71,337,37*72
$GPGSV,3,2,11,19,03,029,,04,06,242,29,13,31,223,37,27,19,283,30*75
$GPGSV,3,3,11,11,06,338,,01,,,18,03,14,056,24*7C
$GPRMC,222627.000,A,2734.78079,S,15305.97737,E,24.3,48.1,030308,11.2,W,A*35
$GPVTG,48.1,T,59.3,M,24.3,N,45.1,K,A*24
$GPGGA,222628.000,2734.77637,S,15305.98293,E,1,07,1.3,50.2,M,39.2,M,,*7E
$GPGLL,2734.77637,S,15305.98293,E,222628.000,A,A*41
$GPGSA,A,3,16,25,23,04,13,27,03,,,,,,2.2,1.3,1.8*38
$GPGST,222628.000,13.2,14.5,8.8,76.9,8.4,13.0,22.0*5F
$GPGSV,3,1,11,16,48,116,30,25,39,268,32,23,58,174,27,20,71,337,37*79
$GPGSV,3,2,11,19,03,029,,04,06,242,32,13,31,223,37,27,19,283,28*76
$GPGSV,3,3,11,11,06,338,,01,,,18,03,14,056,25*7D
$GPRMC,222628.000,A,2734.77637,S,15305.98293,E,23.9,48.5,030308,11.2,W,A*34
$GPVTG,48.5,T,59.7,M,23.9,N,44.3,K,A*2A
$GPGGA,222629.000,2734.77226,S,15305.98850,E,1,08,1.1,49.5,M,39.2,M,,*7C
$GPGLL,2734.77226,S,15305.98850,E,222629.000,A,A*41
$GPGSA,A,3,16,25,23,20,04,13,27,03,,,,,1.7,1.1,1.3*35
$GPGST,222629.000,11.0,9.5,7.3,89.6,6.7,8.6,14.3*5E
$GPGSV,3,1,11,16,48,116,31,25,39,268,32,23,58,174,25,20,71,337,36*7B
$GPGSV,3,2,11,19,03,029,,04,06,242,30,13,31,223,37,27,19,283,28*74
$GPGSV,3,3,11,11,06,338,,01,,,18,03,14,056,27*7F
$GPRMC,222629.000,A,2734.77226,S,15305.98850,E,23.5,49.4,030308,11.2,W,A*38
$GPVTG,49.4,T,60.6,M,23.5,N,43.5,K,A*2C
$GPGGA,222630.000,2734.76859,S,15305.99361,E,1,04,3.5,49.4,M,39.2,M,,*74
$GPGLL,2734.76859,S,15305.99361,E,222630.000,A,A*42
$GPGSA,A,3,16,25,20,27,,,,,,,,,4.9,3.5,3.4*39
$GPGST,222630.000,13.4,7.9,50.0,19.9,17.0,43.1,69.5*66
$GPGSV,3,1,11,16,48,116,31,25,39,268,30,23,58,174,22,20,71,337,36*7E
$GPGSV,3,2,11,19,03,029,,04,06,242,32,13,31,223,35,27,19,283,24*78
